[{"StopId": 4112, "Code": "BX90", "Name": "Bến Xe Buýt ÐH Quốc Gia", "StopType": "Bến xe", "Zone": "Quận Thủ Đức", "Ward": null, "AddressNo": "Bến xe buýt Khu B - ĐH Quốc Gia", "Street": "Đường nội bộ Đại học Quốc gia", "SupportDisability": "", "Status": "Đang khai thác", "Lng": 106.77871704101562, "Lat": 10.884156227111816, "Search": "BXBÐQG BxbKB-DQG DnbDhQg", "Routes": "33, 53, 99"}, {"StopId": 7640, "Code": "QTD 269 ", "Name": "KTX Khu B ĐHQG", "StopType": "Nhà chờ", "Zone": "Quận Thủ Đức", "Ward": "Phường Linh Trung", "AddressNo": "Đối diện Cổng sau KTX Khu B ĐHQG", "Street": "Đường Tiêu biểu số 3", "SupportDisability": "Có", "Status": "Đang khai thác", "Lng": 106.778483, "Lat": 10.883487, "Search": "KKBD DdCsKKBD DTbs3", "Routes": "33, 99"}, {"StopId": 7626, "Code": "QTD 267", "Name": "KTX Khu B ĐHQG", "StopType": "Nhà chờ", "Zone": "Quận Thủ Đức", "Ward": "Phường Linh Trung", "AddressNo": "KTX Khu B ĐHQG (hướng ra)", "Street": "Trục chính số 7", "SupportDisability": "Có", "Status": "Đang khai thác", "Lng": 106.78233, "Lat": 10.881686, "Search": "KKBD KKBD(r Tcs7", "Routes": "33, 53, 99"}, {"StopId": 7627, "Code": "QTD 264", "Name": "Viện Tài nguyên môi trường", "StopType": "Nhà chờ", "Zone": "Quận Thủ Đức", "Ward": "Phường Linh Trung", "AddressNo": "Viện Tài nguyên môi trường", "Street": "Trục chính số 7", "SupportDisability": "Có", "Status": "Đang khai thác", "Lng": 106.78719, "Lat": 10.879805, "Search": "VTnmt VTnmt Tcs7", "Routes": "33, 53, 99"}, {"StopId": 7637, "Code": "QTD 262 ", "Name": "Nhà khách ĐHQG", "StopType": "Nhà chờ", "Zone": "Quận Thủ Đức", "Ward": "Phường Linh Trung", "AddressNo": "Nhà khách ĐHQG (CX264-266)", "Street": "Nguyễn Du", "SupportDisability": "Có", "Status": "Đang khai thác", "Lng": 106.795521, "Lat": 10.880685, "Search": "NkD NkD( ND", "Routes": "33, 53, 99"}, {"StopId": 7641, "Code": "QTD 260 ", "Name": "Hồ Đá ", "StopType": "Nhà chờ", "Zone": "Quận Thủ Đức", "Ward": "Phường Linh Trung", "AddressNo": "Nút giao Nguyễn Du - Lê Quý Đôn (CX362-364)", "Street": "Nguyễn Du", "SupportDisability": "Có", "Status": "Đang khai thác", "Lng": 106.800145, "Lat": 10.882966, "Search": "HD NgND-LQD( ND", "Routes": "33, 53, 99"}, {"StopId": 7656, "Code": "QTD 273", "Name": "Đại học Quốc tế", "StopType": "Nhà chờ", "Zone": "Quận Thủ Đức", "Ward": "Phường Linh Trung", "AddressNo": "Đại học Quốc Tế (cổng ra) ", "Street": "Lê Quý Đôn", "SupportDisability": "Có", "Status": "Đang khai thác", "Lng": 106.803004, "Lat": 10.876792, "Search": "DhQt DhQT(r LQD", "Routes": "33, 50, 53, 99"}, {"StopId": 7647, "Code": "QTD 252", "Name": "KTX Khu A ĐH Quốc Gia TPHCM", "StopType": "Nhà chờ", "Zone": "Quận Thủ Đức", "Ward": "Phường Linh Trung", "AddressNo": "Nút giao Quảng trường (hướng ra)", "Street": "Quảng Trường Sáng Tạo", "SupportDisability": "Có", "Status": "Đang khai thác", "Lng": 106.804914, "Lat": 10.875638, "Search": "KKADQGT NgQt(r QTST", "Routes": "08, 19, 30, 33, 52, 99"}, {"StopId": 7651, "Code": "QTD 272", "Name": "ĐH Khoa học tự nhiên", "StopType": "Trụ dừng", "Zone": "Quận Thủ Đức", "Ward": null, "AddressNo": "đối diện trạm CNG ", "Street": "Đường 621", "SupportDisability": "Có", "Status": "Đang khai thác", "Lng": 106.806813, "Lat": 10.874352, "Search": "DKhtn ddtC D621", "Routes": "08, 10, 30, 33, 99"}, {"StopId": 574, "Code": "QTD 177", "Name": "Khu DL Suối Tiên", "StopType": "Nhà chờ", "Zone": "Quận Thủ Đức", "Ward": "Phường Linh Trung", "AddressNo": "9/29", "Street": "Quốc lộ 1", "SupportDisability": "", "Status": "Đang khai thác", "Lng": 106.801116, "Lat": 10.86605, "Search": "KDST 9/29 Ql1", "Routes": "08, 10, 150, 19, 30, 33, 53, 60-1, 60-2, 60-3, 60-4, 60-7, 76, 93, 99"}, {"StopId": 2145, "Code": "QTD 179", "Name": "Thảo Nguyên", "StopType": "Trụ dừng", "Zone": "Quận Thủ Đức", "Ward": "Phường Linh Trung", "AddressNo": "35B", "Street": "Quốc lộ 1", "SupportDisability": "", "Status": "Đang khai thác", "Lng": 106.793938, "Lat": 10.865335, "Search": "TN 35B Ql1", "Routes": "19, 33, 50, 52, 60-2, 93"}, {"StopId": 500, "Code": "QTD 180", "Name": "Đại học Nông Lâm", "StopType": "Trụ dừng", "Zone": "Quận Thủ Đức", "Ward": "Phường Linh Trung", "AddressNo": "85 (Đối diện 1026-1028)", "Street": "Quốc lộ 1", "SupportDisability": "", "Status": "Đang khai thác", "Lng": 106.791101, "Lat": 10.866961, "Search": "DhNL 85(d1026-1028) Ql1", "Routes": "06, 19, 33, 50, 52, 60-1, 60-2, 93"}, {"StopId": 1101, "Code": "QTD 181", "Name": "ĐH Nông Lâm", "StopType": "Nhà chờ", "Zone": "Quận Thủ Đức", "Ward": null, "AddressNo": "Kế 21", "Street": "Quốc lộ 1", "SupportDisability": "", "Status": "Đang khai thác", "Lng": 106.787265, "Lat": 10.867404, "Search": "DNL K21 Ql1", "Routes": "104, 19, 33, 50, 53, 60-1, 93"}, {"StopId": 1102, "Code": "QTD 182", "Name": "Công ty điện tử Samsung", "StopType": "Trụ dừng", "Zone": "Quận Thủ Đức", "Ward": null, "AddressNo": "34/38 (Kế 59/6)", "Street": "Quốc lộ 1", "SupportDisability": "", "Status": "Đang khai thác", "Lng": 106.782201, "Lat": 10.867867, "Search": "CtdtS 34/38(59/6) Ql1", "Routes": "104, 19, 33, 50, 60-1, 93"}, {"StopId": 1103, "Code": "QTD 183", "Name": "Đại học Kinh tế -Luật", "StopType": "Nhà chờ", "Zone": "Quận Thủ Đức", "Ward": "Phường Linh Xuân", "AddressNo": "Đại học Kinh tế -Luật", "Street": "Quốc lộ 1", "SupportDisability": "", "Status": "Đang khai thác", "Lng": 106.77726, "Lat": 10.869427, "Search": "DhKt-Luat DhKt-Luat Ql1", "Routes": "104, 19, 33, 50, 60-1, 93"}, {"StopId": 2142, "Code": "QTD 184", "Name": "Trung tâm kho vận Linh Xuân", "StopType": "Nhà chờ", "Zone": "Quận Thủ Đức", "Ward": "Phường Linh Xuân", "AddressNo": "Trung tâm kho vận Linh Xuân", "Street": "Quốc lộ 1", "SupportDisability": "", "Status": "Đang khai thác", "Lng": 106.774932, "Lat": 10.870254, "Search": "TtkvLX TtkvLX Ql1", "Routes": "19, 33, 50, 60-1, 93"}, {"StopId": 2147, "Code": "QTD 185", "Name": "Nghĩa trang Thành phố", "StopType": "Nhà chờ", "Zone": "Quận Thủ Đức", "Ward": "Phường Linh Xuân", "AddressNo": "Cột điện NG/1", "Street": "Quốc lộ 1", "SupportDisability": "", "Status": "Đang khai thác", "Lng": 106.771671, "Lat": 10.871313, "Search": "NtTp CdN Ql1", "Routes": "19, 33, 50, 93"}, {"StopId": 2143, "Code": "QTD 186", "Name": "Công ty Nissan", "StopType": "Ô sơn", "Zone": "Quận Thủ Đức", "Ward": null, "AddressNo": "Đối diện công ty Nissan (559)", "Street": "Quốc lộ 1", "SupportDisability": "", "Status": "Đang khai thác", "Lng": 106.768248, "Lat": 10.872419, "Search": "CtN DdctN( Ql1", "Routes": "19, 33, 50, 53, 60-1, 93"}, {"StopId": 339, "Code": "QTD 187", "Name": "Cầu vượt Linh Xuân", "StopType": "Trụ dừng", "Zone": "Quận Thủ Đức", "Ward": "Phường Linh Xuân", "AddressNo": "467B", "Street": "Quốc lộ 1", "SupportDisability": "", "Status": "Đang khai thác", "Lng": 106.762095, "Lat": 10.874474, "Search": "CvLX 467B Ql1", "Routes": "05, 19, 33, 60-1"}, {"StopId": 341, "Code": "QTD 188", "Name": "Giày Thái Bình-Bình Đường", "StopType": "Trụ dừng", "Zone": "Quận Thủ Đức", "Ward": null, "AddressNo": "467B", "Street": "Quốc lộ 1", "SupportDisability": "", "Status": "Không có", "Lng": 106.758689, "Lat": 10.875454, "Search": "GTBD 467B Ql1", "Routes": "05, 19, 33, 60-1"}, {"StopId": 343, "Code": "QTD 189", "Name": "Giày Thái Bình", "StopType": "Trụ dừng", "Zone": "Quận Thủ Đức", "Ward": "Phường Trường Thọ", "AddressNo": "Đối diện 22/8", "Street": "Quốc lộ 1", "SupportDisability": "", "Status": "Đang khai thác", "Lng": 106.757305, "Lat": 10.875738, "Search": "GTB Dd22/8 Ql1", "Routes": "05, 19, 33"}, {"StopId": 342, "Code": "QTD 190", "Name": "Bến xe Lam Hồng", "StopType": "Trụ dừng", "Zone": "Quận Thủ Đức", "Ward": null, "AddressNo": "12A/28", "Street": "Quốc lộ 1", "SupportDisability": "", "Status": "Đang khai thác", "Lng": 106.755631, "Lat": 10.876049, "Search": "BxLH 12A/28 Ql1", "Routes": "05, 19, 33, 60-1"}, {"StopId": 344, "Code": "QTD 191", "Name": "Cầu vượt Sóng Thần", "StopType": "Nhà chờ", "Zone": "Quận Thủ Đức", "Ward": null, "AddressNo": "275", "Street": "Quốc lộ 1", "SupportDisability": "", "Status": "Đang khai thác", "Lng": 106.746528, "Lat": 10.874115, "Search": "CvST 275 Ql1", "Routes": "05, 19, 33, 60-1"}, {"StopId": 346, "Code": "QTD 192", "Name": "Chợ Tam Hải", "StopType": "Ô sơn", "Zone": "Quận Thủ Đức", "Ward": "Phường Bình Chiểu", "AddressNo": "251B", "Street": "Quốc lộ 1", "SupportDisability": "", "Status": "Đang khai thác", "Lng": 106.744291, "Lat": 10.873373, "Search": "CTH 251B Ql1", "Routes": "05, 19, 33, 60-1"}, {"StopId": 345, "Code": "QTD 193", "Name": "Hồ Bơi", "StopType": "Trụ dừng", "Zone": "Quận Thủ Đức", "Ward": "Phường Bình Chiểu", "AddressNo": "179", "Street": "Quốc lộ 1", "SupportDisability": "", "Status": "Đang khai thác", "Lng": 106.739913, "Lat": 10.872177, "Search": "HB 179 Ql1", "Routes": "05, 19, 33, 60-1"}, {"StopId": 348, "Code": "QTD 194", "Name": "Chợ Tam Bình", "StopType": "Trụ dừng", "Zone": "Quận Thủ Đức", "Ward": "Phường Bình Chiểu", "AddressNo": "Đối diện Bưu điện Tam Bình", "Street": "Quốc lộ 1", "SupportDisability": "", "Status": "Đang khai thác", "Lng": 106.734474, "Lat": 10.870828, "Search": "CTB DdBdTB Ql1", "Routes": "05, 19, 33, 60-1"}, {"StopId": 347, "Code": "QTD 195", "Name": "Chợ đầu mối nông sản Thủ Đức", "StopType": "Nhà chờ", "Zone": "Quận Thủ Đức", "Ward": "Phường Tam Bình", "AddressNo": "Chợ đầu mối nông sản Thủ Đức", "Street": "Quốc lộ 1", "SupportDisability": "", "Status": "Đang khai thác", "Lng": 106.729158, "Lat": 10.86812, "Search": "CdmnsTD CdmnsTD Ql1", "Routes": "05, 19, 29, 33, 60-1, 60-5, 89"}, {"StopId": 2348, "Code": "QTD 196", "Name": "Cầu Bình Phước", "StopType": "Trụ dừng", "Zone": "Quận Thủ Đức", "Ward": null, "AddressNo": "39A", "Street": "Quốc lộ 1", "SupportDisability": "", "Status": "Đang khai thác", "Lng": 106.719894, "Lat": 10.863451, "Search": "CBP 39A Ql1", "Routes": "33, 60-1, 60-5, 61-3"}, {"StopId": 2345, "Code": "Q12 061", "Name": "Aone", "StopType": "Ô sơn", "Zone": "Quận 12", "Ward": null, "AddressNo": "Đối diện Aone", "Street": "Quốc lộ 1A", "SupportDisability": "", "Status": "Đang khai thác", "Lng": 106.713096, "Lat": 10.85997, "Search": "A DdA Ql1A", "Routes": "33, 60-1, 60-5, 61-3"}, {"StopId": 2349, "Code": "Q12 062", "Name": "Công ty EUROPA", "StopType": "Nhà chờ", "Zone": "Quận 12", "Ward": null, "AddressNo": "Công ty EUROPA", "Street": "Quốc lộ 1A", "SupportDisability": "", "Status": "Đang khai thác", "Lng": 106.707727, "Lat": 10.859148, "Search": "CtE CtE Ql1A", "Routes": "33, 60-1, 60-5, 61-3"}, {"StopId": 2347, "Code": "Q12 063", "Name": "Tu viện Khánh An", "StopType": "Trụ dừng", "Zone": "Quận 12", "Ward": null, "AddressNo": "1048/3B", "Street": "Quốc lộ 1A", "SupportDisability": "", "Status": "Đang khai thác", "Lng": 106.704948, "Lat": 10.859496, "Search": "TvKA 1048/3B Ql1A", "Routes": "33, 60-5, 61-3"}, {"StopId": 2350, "Code": "Q12 064", "Name": "Công ty Mai Linh", "StopType": "Trụ dừng", "Zone": "Quận 12", "Ward": null, "AddressNo": "1691/3N", "Street": "Quốc lộ 1A", "SupportDisability": "", "Status": "Đang khai thác", "Lng": 106.701086, "Lat": 10.860007, "Search": "CtML 1691/3N Ql1A", "Routes": "33, 60-1, 60-5, 61-3"}, {"StopId": 2351, "Code": "Q12 065", "Name": "Đình An Phú Đông", "StopType": "Biển treo", "Zone": "Quận 12", "Ward": null, "AddressNo": "Đối diện Đình An Phú Đông", "Street": "Quốc lộ 1A", "SupportDisability": "", "Status": "Đang khai thác", "Lng": 106.695453, "Lat": 10.86065, "Search": "DAPD DdDAPD Ql1A", "Routes": "33, 60-1, 60-5, 61-3"}, {"StopId": 2353, "Code": "Q12 066", "Name": "Đài Liệt sĩ An Phú Đông", "StopType": "Nhà chờ", "Zone": "Quận 12", "Ward": null, "AddressNo": "Đài Liệt sĩ An Phú Đông", "Street": "Quốc lộ 1A", "SupportDisability": "", "Status": "Đang khai thác", "Lng": 106.69224, "Lat": 10.860876, "Search": "DLsAPD DLsAPD Ql1A", "Routes": "33, 60-5, 61-3"}, {"StopId": 2352, "Code": "Q12 067", "Name": "Công ty Hồng Mã", "StopType": "Trụ dừng", "Zone": "Quận 12", "Ward": null, "AddressNo": "Công ty Hồng Mã", "Street": "Quốc lộ 1A", "SupportDisability": "", "Status": "Đang khai thác", "Lng": 106.689413, "Lat": 10.86104, "Search": "CtHM CtHM Ql1A", "Routes": "33, 60-1, 60-5, 61-3"}, {"StopId": 2355, "Code": "Q12 068", "Name": "Phường An Phú Đông", "StopType": "Trụ dừng", "Zone": "Quận 12", "Ward": null, "AddressNo": "616 - 618", "Street": "Quốc lộ 1A", "SupportDisability": "", "Status": "Đang khai thác", "Lng": 106.685175, "Lat": 10.861324, "Search": "PAPD 616-618 Ql1A", "Routes": "33, 60-1, 60-5, 61-3"}, {"StopId": 2357, "Code": "Q12 069", "Name": "Cầu Ga Nhỏ", "StopType": "Trụ dừng", "Zone": "Quận 12", "Ward": null, "AddressNo": "161", "Street": "Quốc lộ 1A", "SupportDisability": "", "Status": "Đang khai thác", "Lng": 106.682321, "Lat": 10.861503, "Search": "CGN 161 Ql1A", "Routes": "33, 60-5, 61-3"}, {"StopId": 2354, "Code": "Q12 070", "Name": "Bến xe Ngã tư Ga", "StopType": "Nhà chờ", "Zone": "Quận 12", "Ward": null, "AddressNo": "Bến xe Ngã tư ga", "Street": "Quốc lộ 1A", "SupportDisability": "", "Status": "Đang khai thác", "Lng": 106.679354, "Lat": 10.861725, "Search": "BxNtG BxNtg Ql1A", "Routes": "33, 58, 60-1, 60-5, 61-3"}, {"StopId": 976, "Code": "Q12 071", "Name": "Khu QLGTĐT số 3", "StopType": "Trụ dừng", "Zone": "Quận 12", "Ward": null, "AddressNo": "96/2", "Street": "Quốc lộ 1A", "SupportDisability": "", "Status": "Đang khai thác", "Lng": 106.674564, "Lat": 10.861967, "Search": "KQs3 96/2 Ql1A", "Routes": "103, 32, 33, 59, 60-1, 60-5, 61-3"}, {"StopId": 964, "Code": "Q12 072", "Name": "Tô Ngọc Vân", "StopType": "Trụ dừng", "Zone": "Quận 12", "Ward": null, "AddressNo": "972", "Street": "Quốc lộ 1A", "SupportDisability": "", "Status": "Đang khai thác", "Lng": 106.671935, "Lat": 10.861904, "Search": "TNV 972 Ql1A", "Routes": "103, 32, 33, 59, 60-5, 61-3"}, {"StopId": 965, "Code": "Q12 073", "Name": "Trường Mầm non Ngôi Nhà Trẻ Thơ", "StopType": "Trụ dừng", "Zone": "Quận 12", "Ward": null, "AddressNo": "990", "Street": "Quốc lộ 1A", "SupportDisability": "", "Status": "Đang khai thác", "Lng": 106.667461, "Lat": 10.861877, "Search": "TMnNNTT 990 Ql1A", "Routes": "103, 146, 33, 60-1, 60-5, 61-3"}, {"StopId": 977, "Code": "Q12 074", "Name": "Cơ khí Minh Huy", "StopType": "Trụ dừng", "Zone": "Quận 12", "Ward": null, "AddressNo": "1218/11", "Street": "Quốc lộ 1A", "SupportDisability": "", "Status": "Đang khai thác", "Lng": 106.661389, "Lat": 10.861819, "Search": "CkMH 1218/11 Ql1A", "Routes": "103, 146, 33, 60-1, 60-5, 61-3"}, {"StopId": 966, "Code": "Q12 075", "Name": "Đá hoa cương Chí Thành", "StopType": "Nhà chờ", "Zone": "Quận 12", "Ward": null, "AddressNo": "1360", "Street": "Quốc lộ 1A", "SupportDisability": "", "Status": "Đang khai thác", "Lng": 106.657183, "Lat": 10.861988, "Search": "DhcCT 1360 Ql1A", "Routes": "103, 146, 33, 60-1, 60-5, 61-3"}, {"StopId": 969, "Code": "Q12 076", "Name": "Quận ủy Quận 12", "StopType": "Trụ dừng", "Zone": "Quận 12", "Ward": null, "AddressNo": "1456 (Quận Ủy quận 12)", "Street": "Quốc lộ 1A", "SupportDisability": "", "Status": "Đang khai thác", "Lng": 106.653428, "Lat": 10.862114, "Search": "QuQ12 1456(Uq12) Ql1A", "Routes": "103, 33, 60-1, 60-5, 61-3"}, {"StopId": 972, "Code": "Q12 077", "Name": "Ngã tư Tân Thới Hiệp", "StopType": "Trụ dừng", "Zone": "Quận 12", "Ward": null, "AddressNo": "1680", "Street": "Quốc lộ 1A", "SupportDisability": "", "Status": "Đang khai thác", "Lng": 106.650757, "Lat": 10.862273, "Search": "NtTTH 1680 Ql1A", "Routes": "103, 33, 60-5, 61-3"}, {"StopId": 2775, "Code": "Q12 078", "Name": "Cao su Vina", "StopType": "Trụ dừng", "Zone": "Quận 12", "Ward": null, "AddressNo": "67/3A", "Street": "Quốc lộ 1A", "SupportDisability": "", "Status": "Đang khai thác", "Lng": 106.648536, "Lat": 10.861767, "Search": "CsV 67/3A Ql1A", "Routes": "33, 60-1, 60-5, 61-3, 62"}, {"StopId": 2776, "Code": "Q12 079", "Name": "Cây xăng Trung Tín", "StopType": "Trụ dừng", "Zone": "Quận 12", "Ward": null, "AddressNo": "1828", "Street": "Quốc lộ 1A", "SupportDisability": "", "Status": "Đang khai thác", "Lng": 106.645682, "Lat": 10.860302, "Search": "CxTT 1828 Ql1A", "Routes": "33, 60-1, 60-5, 61-3, 62"}, {"StopId": 2777, "Code": "Q12 080", "Name": "Trạm điện Hóc Môn", "StopType": "Trụ dừng", "Zone": "Quận 12", "Ward": null, "AddressNo": "1956", "Street": "Quốc lộ 1A", "SupportDisability": "", "Status": "Đang khai thác", "Lng": 106.640918, "Lat": 10.857668, "Search": "TdHM 1956 Ql1A", "Routes": "33, 60-1, 60-5, 61-3, 62"}, {"StopId": 2778, "Code": "Q12 081", "Name": "Ngã tư Đình", "StopType": "Trụ dừng", "Zone": "Quận 12", "Ward": null, "AddressNo": "44D", "Street": "Quốc lộ 1A", "SupportDisability": "", "Status": "Đang khai thác", "Lng": 106.638172, "Lat": 10.856256, "Search": "NtD 44D Ql1A", "Routes": "33, 60-1, 60-5, 61-3, 62"}, {"StopId": 2779, "Code": "Q12 082", "Name": "Nhà lầu", "StopType": "Ô sơn", "Zone": "Quận 12", "Ward": null, "AddressNo": "228/3", "Street": "Quốc lộ 1A", "SupportDisability": "", "Status": "Đã hủy", "Lng": 106.636165, "Lat": 10.855055, "Search": "Nl 228/3 Ql1A", "Routes": "33, 60-1, 60-5, 61-3, 62"}, {"StopId": 2781, "Code": "Q12 083", "Name": "Trường Nguyễn Du", "StopType": "Nhà chờ", "Zone": "Quận 12", "Ward": null, "AddressNo": "Đối diện Trường Nguyễn Du", "Street": "Quốc lộ 1A", "SupportDisability": "", "Status": "Đang khai thác", "Lng": 106.632469, "Lat": 10.853048, "Search": "TND DdTND Ql1A", "Routes": "33, 60-1, 60-5, 61-3, 62"}, {"StopId": 2780, "Code": "Q12 084", "Name": "Công viên Phần mềm Quang Trung", "StopType": "Nhà chờ", "Zone": "Quận 12", "Ward": null, "AddressNo": "Công viên phần mềm Quang Trung", "Street": "Quốc lộ 1A", "SupportDisability": "", "Status": "Đang khai thác", "Lng": 106.630935, "Lat": 10.852242, "Search": "CvPmQT CvpmQT Ql1A", "Routes": "33, 61-3, 62"}, {"StopId": 2254, "Code": "Q12 085", "Name": "Chung cư Thái An", "StopType": "Trụ dừng", "Zone": "Quận 12", "Ward": null, "AddressNo": "Chung cư Thái An", "Street": "Quốc lộ 1A", "SupportDisability": "", "Status": "Đang khai thác", "Lng": 106.624348, "Lat": 10.84907, "Search": "CcTA CcTA Ql1A", "Routes": "24, 33, 60-1, 60-5, 61-3"}, {"StopId": 2250, "Code": "Q12 086", "Name": "Trạm đăng kiểm", "StopType": "Trụ dừng", "Zone": "Quận 12", "Ward": null, "AddressNo": "Trạm đăng kiểm", "Street": "Quốc lộ 1A", "SupportDisability": "", "Status": "Đang khai thác", "Lng": 106.621059, "Lat": 10.8475, "Search": "Tdk Tdk Ql1A", "Routes": "24, 33, 60-1, 60-5, 61-3"}, {"StopId": 2251, "Code": "Q12 087", "Name": "Bãi xe Tây Nam", "StopType": "Nhà chờ", "Zone": "Quận 12", "Ward": null, "AddressNo": "Đối diện Bãi xe Tây Nam", "Street": "Quốc lộ 1A", "SupportDisability": "", "Status": "Đang khai thác", "Lng": 106.618758, "Lat": 10.845935, "Search": "BxTN DdBxTN Ql1A", "Routes": "24, 33, 60-5, 61-3"}, {"StopId": 2252, "Code": "Q12 088", "Name": "Cầu vượt An Sương", "StopType": "Nhà chờ", "Zone": "Quận 12", "Ward": null, "AddressNo": "Xưởng Z735", "Street": "Quốc lộ 1A", "SupportDisability": "", "Status": "Đang khai thác", "Lng": 106.616081, "Lat": 10.843623, "Search": "CvAS XZ Ql1A", "Routes": "24, 33, 60-1, 60-5, 61-3"}, {"StopId": 1115, "Code": "Q12 122", "Name": "Bến xe An Sương", "StopType": "Trụ dừng", "Zone": "Quận 12", "Ward": null, "AddressNo": "F42", "Street": "Quốc lộ 22", "SupportDisability": "", "Status": "Đang khai thác", "Lng": 106.613517, "Lat": 10.845803, "Search": "BxAS F Ql22", "Routes": "04, 104, 122, 13, 145, 24, 27, 33, 60-5, 62-5, 65, 70-3, 71, 85"}, {"StopId": 1239, "Code": "HHM 058", "Name": "Bến xe An Sương", "StopType": "Trụ dừng", "Zone": "Huyện Hóc Môn", "Ward": "Xã Bà Điểm", "AddressNo": "1B", "Street": "Quốc lộ 22", "SupportDisability": "", "Status": "Đang khai thác", "Lng": 106.613522, "Lat": 10.845187, "Search": "BxAS 1B Ql22", "Routes": "04, 122, 13, 145, 24, 33, 60-5, 62-5, 65, 70-3, 71, 74, 85, 94"}, {"StopId": 166, "Code": "BX41", "Name": "Bến xe An Sương", "StopType": "Bến xe", "Zone": "Quận 12", "Ward": null, "AddressNo": "Bến xe An Sương", "Street": "Quốc lộ 22", "SupportDisability": "", "Status": "Đang khai thác", "Lng": 106.61337280273438, "Lat": 10.843737602233887, "Search": "BxAS BxAS Ql22", "Routes": "04, 104, 122, 151, 27, 33, 41, 60-5, 61-3, 62-5, 65, 71, 74, 85"}]