[
    {
        "StopId": 4412,
        "Code": "BX 1234546789",
        "Name": "Đường nội bộ Đại học Quốc gia",
        "StopType": "Ô sơn",
        "Zone": "Quận Thủ Đức",
        "Ward": null,
        "AddressNo": "Đại học Quốc Tế - Đại học Quốc gia",
        "Street": "Đường nội bộ Đại học Quốc gia",
        "SupportDisability": "",
        "Status": "Đang khai thác",
        "Lng": 106.801507,
        "Lat": 10.874168,
        "Search": "DnbDhQg DhQT-DhQg DnbDhQg",
        "Routes": "30"
    },
    {
        "StopId": 7624,
        "Code": "QTD 255",
        "Name": "Đại học Quốc tế",
        "StopType": "Nhà chờ",
        "Zone": "Quận Thủ Đức",
        "Ward": "Phường Linh Trung",
        "AddressNo": "Đối diện Đại học Quốc tế",
        "Street": "Quảng Trường Sáng Tạo",
        "SupportDisability": "Có",
        "Status": "Đang khai thác",
        "Lng": 106.80257,
        "Lat": 10.876476,
        "Search": "DhQt DdDhQt QTST",
        "Routes": "08, 19, 30, 50, 52, 53"
    },
    {
        "StopId": 7647,
        "Code": "QTD 252",
        "Name": "KTX Khu A ĐH Quốc Gia TPHCM",
        "StopType": "Nhà chờ",
        "Zone": "Quận Thủ Đức",
        "Ward": "Phường Linh Trung",
        "AddressNo": "Nút giao Quảng trường (hướng ra)",
        "Street": "Quảng Trường Sáng Tạo",
        "SupportDisability": "Có",
        "Status": "Đang khai thác",
        "Lng": 106.804914,
        "Lat": 10.875638,
        "Search": "KKADQGT NgQt(r QTST",
        "Routes": "08, 19, 30, 33, 52, 99"
    },
    {
        "StopId": 7651,
        "Code": "QTD 272",
        "Name": "ĐH Khoa học tự nhiên",
        "StopType": "Trụ dừng",
        "Zone": "Quận Thủ Đức",
        "Ward": null,
        "AddressNo": "đối diện trạm CNG ",
        "Street": "Đường 621",
        "SupportDisability": "Có",
        "Status": "Đang khai thác",
        "Lng": 106.806813,
        "Lat": 10.874352,
        "Search": "DKhtn ddtC D621",
        "Routes": "08, 10, 30, 33, 99"
    },
    {
        "StopId": 574,
        "Code": "QTD 177",
        "Name": "Khu DL Suối Tiên",
        "StopType": "Nhà chờ",
        "Zone": "Quận Thủ Đức",
        "Ward": "Phường Linh Trung",
        "AddressNo": "9/29",
        "Street": "Quốc lộ 1",
        "SupportDisability": "",
        "Status": "Đang khai thác",
        "Lng": 106.801116,
        "Lat": 10.86605,
        "Search": "KDST 9/29 Ql1",
        "Routes": "08, 10, 150, 19, 30, 33, 53, 60-1, 60-2, 60-3, 60-4, 60-7, 76, 93, 99"
    },
    {
        "StopId": 398,
        "Code": "QTD 074",
        "Name": "Khu Công nghệ cao Q9",
        "StopType": "Trụ dừng",
        "Zone": "Quận Thủ Đức",
        "Ward": "Phường Linh Trung",
        "AddressNo": "Đối diện Khu công nghệ cao",
        "Street": "Xa Lộ Hà Nội",
        "SupportDisability": "",
        "Status": "Đang khai thác",
        "Lng": 106.791138,
        "Lat": 10.860218,
        "Search": "KCncQ DdKcnc XLHN",
        "Routes": "06, 08, 150, 30, 52, 60-3, 60-4, 60-7, 76"
    },
    {
        "StopId": 401,
        "Code": "QTD 076",
        "Name": "Công ty Cocacola",
        "StopType": "Trụ dừng",
        "Zone": "Quận Thủ Đức",
        "Ward": "Phường Linh Trung",
        "AddressNo": "Công ty Cocacola",
        "Street": "Xa Lộ Hà Nội",
        "SupportDisability": "",
        "Status": "Đang khai thác",
        "Lng": 106.784964,
        "Lat": 10.856483,
        "Search": "CtC CtC XLHN",
        "Routes": "06, 08, 150, 30, 52, 60-3, 60-4, 60-7, 76"
    },
    {
        "StopId": 1113,
        "Code": "QTD 077",
        "Name": "Ngã tư Thủ Đức",
        "StopType": "Nhà chờ",
        "Zone": "Quận Thủ Đức",
        "Ward": "Phường Bình Thọ",
        "AddressNo": "Đối diện Coopmart",
        "Street": "Xa Lộ Hà Nội",
        "SupportDisability": "",
        "Status": "Đang khai thác",
        "Lng": 106.77299,
        "Lat": 10.84828,
        "Search": "NtTD DdC XLHN",
        "Routes": "10, 104, 150, 30, 52, 55, 60-3, 60-4, 60-7"
    },
    {
        "StopId": 1111,
        "Code": "QTD 078",
        "Name": "Betong Hải Âu",
        "StopType": "Trụ dừng",
        "Zone": "Quận Thủ Đức",
        "Ward": "Phường Bình Thọ",
        "AddressNo": "Đối diện Betong Hải Âu",
        "Street": "Xa Lộ Hà Nội",
        "SupportDisability": "",
        "Status": "Đang khai thác",
        "Lng": 106.77063,
        "Lat": 10.844297,
        "Search": "BHA DdBHA XLHN",
        "Routes": "104, 150, 30, 52, 55, 60-3, 60-7"
    },
    {
        "StopId": 1112,
        "Code": "QTD 079",
        "Name": "UBND Quận 9",
        "StopType": "Nhà chờ",
        "Zone": "Quận Thủ Đức",
        "Ward": "Phường Bình Thọ",
        "AddressNo": "126",
        "Street": "Xa Lộ Hà Nội",
        "SupportDisability": "",
        "Status": "Đang khai thác",
        "Lng": 106.768607,
        "Lat": 10.840745,
        "Search": "UQ9 126 XLHN",
        "Routes": "104, 150, 30, 52, 55, 60-3, 60-4, 60-7"
    },
    {
        "StopId": 410,
        "Code": "QTD 080",
        "Name": "Ngã 4 Bình Thái",
        "StopType": "Nhà chờ",
        "Zone": "Quận Thủ Đức",
        "Ward": "Phường Trường Thọ",
        "AddressNo": "Đối diện 592C",
        "Street": "Xa Lộ Hà Nội",
        "SupportDisability": "",
        "Status": "Đang khai thác",
        "Lng": 106.765244,
        "Lat": 10.834945,
        "Search": "N4BT Dd592C XLHN",
        "Routes": "06, 10, 104, 150, 30, 52, 53, 55, 56, 60-3, 60-4, 60-7"
    },
    {
        "StopId": 413,
        "Code": "QTD 081",
        "Name": "Công ty truyền tải điện 4",
        "StopType": "Nhà chờ",
        "Zone": "Quận Thủ Đức",
        "Ward": "Phường Trường Thọ",
        "AddressNo": "Công ty truyền tải điện 4",
        "Street": "Xa Lộ Hà Nội",
        "SupportDisability": "",
        "Status": "Đang khai thác",
        "Lng": 106.763195,
        "Lat": 10.831214,
        "Search": "Ctttd4 Ctttd4 XLHN",
        "Routes": "06, 104, 150, 30, 52, 55, 56, 60-3, 60-4, 60-7"
    },
    {
        "StopId": 412,
        "Code": "QTD 082",
        "Name": "Ngã 4 Tây Hòa (RMK)",
        "StopType": "Nhà chờ",
        "Zone": "Quận Thủ Đức",
        "Ward": "Phường Trường Thọ",
        "AddressNo": "Nhà máy thép Thủ Đức",
        "Street": "Xa Lộ Hà Nội",
        "SupportDisability": "",
        "Status": "Đang khai thác",
        "Lng": 106.759998,
        "Lat": 10.825366,
        "Search": "N4TH( NmtTD XLHN",
        "Routes": "06, 104, 150, 30, 52, 55, 56, 60-3, 60-7, 99"
    },
    {
        "StopId": 414,
        "Code": "QTD 083",
        "Name": "Xi măng Hà Tiên",
        "StopType": "Nhà chờ",
        "Zone": "Quận Thủ Đức",
        "Ward": "Phường Trường Thọ",
        "AddressNo": "Xi măng Hà Tiên 1",
        "Street": "Xa Lộ Hà Nội",
        "SupportDisability": "",
        "Status": "Đang khai thác",
        "Lng": 106.758142,
        "Lat": 10.820576,
        "Search": "XmHT XmHT1 XLHN",
        "Routes": "06, 104, 150, 30, 52, 55, 56, 60-3, 60-4, 60-7, 99"
    },
    {
        "StopId": 415,
        "Code": "Q2 075",
        "Name": "Cát Lái",
        "StopType": "Nhà chờ",
        "Zone": "Quận 2",
        "Ward": null,
        "AddressNo": "Đối diện Esstella",
        "Street": "Xa Lộ Hà Nội",
        "SupportDisability": "",
        "Status": "Đang khai thác",
        "Lng": 106.747948,
        "Lat": 10.802925,
        "Search": "CL DdE XLHN",
        "Routes": "06, 10, 104, 150, 30, 52, 55, 56, 60-3, 60-4, 60-7"
    },
    {
        "StopId": 416,
        "Code": "Q2 076",
        "Name": "Metro Quận 2",
        "StopType": "Nhà chờ",
        "Zone": "Quận 2",
        "Ward": null,
        "AddressNo": "655",
        "Street": "Xa Lộ Hà Nội",
        "SupportDisability": "",
        "Status": "Đang khai thác",
        "Lng": 106.7434,
        "Lat": 10.802134,
        "Search": "MQ2 655 XLHN",
        "Routes": "06, 104, 150, 30, 52, 55, 56, 60-3, 60-4, 60-7"
    },
    {
        "StopId": 417,
        "Code": "Q2 077",
        "Name": "Thảo Điền",
        "StopType": "Nhà chờ",
        "Zone": "Quận 2",
        "Ward": null,
        "AddressNo": "Ngã ba Thảo Điền",
        "Street": "Xa Lộ Hà Nội",
        "SupportDisability": "",
        "Status": "Đang khai thác",
        "Lng": 106.738762,
        "Lat": 10.801309,
        "Search": "TD NbTD XLHN",
        "Routes": "06, 104, 150, 30, 52, 55, 56, 60-3, 60-4, 60-7, 72-1"
    },
    {
        "StopId": 418,
        "Code": "Q2 078",
        "Name": "Cầu Đen",
        "StopType": "Nhà chờ",
        "Zone": "Quận 2",
        "Ward": null,
        "AddressNo": "Đối diện Cầu Đen",
        "Street": "Xa Lộ Hà Nội",
        "SupportDisability": "",
        "Status": "Đang khai thác",
        "Lng": 106.73436,
        "Lat": 10.800451,
        "Search": "CD DdCD XLHN",
        "Routes": "06, 104, 150, 30, 52, 53, 55, 56, 60-3, 60-4, 60-7, 72-1"
    },
    {
        "StopId": 7703,
        "Code": "QBTH 075_1",
        "Name": "Cây xăng Hoàng Nguyên",
        "StopType": "Trạm tạm",
        "Zone": "Quận Bình Thạnh",
        "Ward": "Phường 22",
        "AddressNo": "37A ",
        "Street": "Nguyễn Hữu Cảnh",
        "SupportDisability": "",
        "Status": "Đã hủy",
        "Lng": 106.71786,
        "Lat": 10.79084,
        "Search": "CxHN 37A NHC",
        "Routes": "30, 56"
    },
    {
        "StopId": 2702,
        "Code": "QBTH 076",
        "Name": "Hồ Bơi Hải Quân",
        "StopType": "Trụ dừng",
        "Zone": "Quận Bình Thạnh",
        "Ward": null,
        "AddressNo": "22",
        "Street": "Nguyễn Hữu Cảnh",
        "SupportDisability": "",
        "Status": "Đang khai thác",
        "Lng": 106.710522,
        "Lat": 10.789477,
        "Search": "HBHQ 22 NHC",
        "Routes": "30, 44, 56, 88"
    },
    {
        "StopId": 2703,
        "Code": "Q1 034",
        "Name": "Mầm non Hoa Lư",
        "StopType": "Nhà chờ",
        "Zone": "Quận 1",
        "Ward": null,
        "AddressNo": "1",
        "Street": "Nguyễn Hữu Cảnh",
        "SupportDisability": "",
        "Status": "Đang khai thác",
        "Lng": 106.707555,
        "Lat": 10.784149,
        "Search": "MnHL 1 NHC",
        "Routes": "30, 44, 53, 56, 88"
    },
    {
        "StopId": 1095,
        "Code": "Q1 028",
        "Name": "TTTM Sài Gòn",
        "StopType": "Ô sơn",
        "Zone": "Quận 1",
        "Ward": null,
        "AddressNo": "6",
        "Street": "Tôn Đức Thắng",
        "SupportDisability": "",
        "Status": "Đang khai thác",
        "Lng": 106.704363,
        "Lat": 10.784286,
        "Search": "TSG 6 TDT",
        "Routes": "30, 44"
    },
    {
        "StopId": 2146,
        "Code": "Q1 085",
        "Name": "Khách sạn Sofitel",
        "StopType": "Trụ dừng",
        "Zone": "Quận 1",
        "Ward": null,
        "AddressNo": "Đối diện Central Plaza",
        "Street": "Lê Duẩn",
        "SupportDisability": "",
        "Status": "Đang khai thác",
        "Lng": 106.702118,
        "Lat": 10.78428,
        "Search": "KsS DdCP LD",
        "Routes": "19, 30"
    },
    {
        "StopId": 2696,
        "Code": "Q1 086",
        "Name": "Diamond Plaza",
        "StopType": "Trụ dừng",
        "Zone": "Quận 1",
        "Ward": null,
        "AddressNo": "34",
        "Street": "Lê Duẩn",
        "SupportDisability": "",
        "Status": "Đang khai thác",
        "Lng": 106.698704,
        "Lat": 10.780914,
        "Search": "DP 34 LD",
        "Routes": "18, 30"
    },
    {
        "StopId": 2704,
        "Code": "Q3 116",
        "Name": "Nhà Văn Hóa Thanh Niên",
        "StopType": "Trụ dừng",
        "Zone": "Quận 3",
        "Ward": null,
        "AddressNo": "6B-8",
        "Street": "Phạm Ngọc Thạch",
        "SupportDisability": "",
        "Status": "Đang khai thác",
        "Lng": 106.696874,
        "Lat": 10.781862,
        "Search": "NVHTN 6B-8 PNT",
        "Routes": "30, 36, 52"
    },
    {
        "StopId": 2706,
        "Code": "Q3 076",
        "Name": "Đại học Kinh tế",
        "StopType": "Trụ dừng",
        "Zone": "Quận 3",
        "Ward": null,
        "AddressNo": "18Bis",
        "Street": "Phạm Ngọc Thạch",
        "SupportDisability": "",
        "Status": "Đang khai thác",
        "Lng": 106.694573,
        "Lat": 10.784012,
        "Search": "DhKt 18Bis PNT",
        "Routes": "30, 36"
    },
    {
        "StopId": 2707,
        "Code": "Q3 077",
        "Name": "Điện Biên Phủ",
        "StopType": "Trụ dừng",
        "Zone": "Quận 3",
        "Ward": null,
        "AddressNo": "42",
        "Street": "Phạm Ngọc Thạch",
        "SupportDisability": "",
        "Status": "Đang khai thác",
        "Lng": 106.69335,
        "Lat": 10.78514,
        "Search": "DBP 42 PNT",
        "Routes": "30, 36"
    },
    {
        "StopId": 2710,
        "Code": "Q3 078",
        "Name": "Võ Thị Sáu",
        "StopType": "Trụ dừng",
        "Zone": "Quận 3",
        "Ward": null,
        "AddressNo": "82 - 84 (66 cây xanh 150)",
        "Street": "Phạm Ngọc Thạch",
        "SupportDisability": "",
        "Status": "Đang khai thác",
        "Lng": 106.691703,
        "Lat": 10.786589,
        "Search": "VTS 82-84(cx150) PNT",
        "Routes": "30"
    },
    {
        "StopId": 3176,
        "Code": "Q3 100",
        "Name": "Phạm Ngọc Thạch",
        "StopType": "Trụ dừng",
        "Zone": "Quận 3",
        "Ward": null,
        "AddressNo": "158A - 156B",
        "Street": "Võ Thị Sáu",
        "SupportDisability": "",
        "Status": "Đang khai thác",
        "Lng": 106.690918,
        "Lat": 10.786916,
        "Search": "PNT 158A-156B VTS",
        "Routes": "30, 72-1, 91"
    },
    {
        "StopId": 246,
        "Code": "Q3 101",
        "Name": "Nhà thiếu nhi thành phố",
        "StopType": "Nhà chờ",
        "Zone": "Quận 3",
        "Ward": null,
        "AddressNo": "Đối diện 153 A-B (ngã 4 NKKN)",
        "Street": "Võ Thị Sáu",
        "SupportDisability": "",
        "Status": "Đang khai thác",
        "Lng": 106.689613,
        "Lat": 10.785583,
        "Search": "Ntntp Dd153A(4N VTS",
        "Routes": "04, 109, 152, 30, 91"
    },
    {
        "StopId": 2491,
        "Code": "Q3 102",
        "Name": "Bảo tàng Phụ Nữ",
        "StopType": "Trụ dừng",
        "Zone": "Quận 3",
        "Ward": null,
        "AddressNo": "200",
        "Street": "Võ Thị Sáu",
        "SupportDisability": "",
        "Status": "Đang khai thác",
        "Lng": 106.687514,
        "Lat": 10.783533,
        "Search": "BtPN 200 VTS",
        "Routes": "28, 30, 91"
    },
    {
        "StopId": 727,
        "Code": "Q3 103",
        "Name": "Trần Quốc Thảo",
        "StopType": "Trụ dừng",
        "Zone": "Quận 3",
        "Ward": null,
        "AddressNo": "232",
        "Street": "Võ Thị Sáu",
        "SupportDisability": "",
        "Status": "Đang khai thác",
        "Lng": 106.686242,
        "Lat": 10.782294,
        "Search": "TQT 232 VTS",
        "Routes": "10, 30, 91"
    },
    {
        "StopId": 2708,
        "Code": "Q3 104",
        "Name": "Ngã sáu Dân Chủ",
        "StopType": "Nhà chờ",
        "Zone": "Quận 3",
        "Ward": null,
        "AddressNo": "274",
        "Street": "Võ Thị Sáu",
        "SupportDisability": "",
        "Status": "Đang khai thác",
        "Lng": 106.682616,
        "Lat": 10.778584,
        "Search": "NsDC 274 VTS",
        "Routes": "30, 91"
    },
    {
        "StopId": 1299,
        "Code": "Q3 009",
        "Name": "Công trường Dân Chủ",
        "StopType": "Trụ dừng",
        "Zone": "Quận 3",
        "Ward": "Phường 10",
        "AddressNo": "132C - 132D",
        "Street": "Cách Mạng Tháng Tám",
        "SupportDisability": "",
        "Status": "Đang khai thác",
        "Lng": 106.680481,
        "Lat": 10.778516,
        "Search": "CtDC 132C-132D CMTT",
        "Routes": "13, 30, 65"
    },
    {
        "StopId": 1298,
        "Code": "Q3 010",
        "Name": "Ngã Ba Chí Hòa",
        "StopType": "Trụ dừng",
        "Zone": "Quận 3",
        "Ward": "Phường 10",
        "AddressNo": "276 Bis",
        "Street": "Cách Mạng Tháng Tám",
        "SupportDisability": "",
        "Status": "Đang khai thác",
        "Lng": 106.676345,
        "Lat": 10.780703,
        "Search": "NBCH 276B CMTT",
        "Routes": "13, 30, 65"
    },
    {
        "StopId": 2711,
        "Code": "Q3 011",
        "Name": "Chùa Bửu Đà",
        "StopType": "Biển treo",
        "Zone": "Quận 3",
        "Ward": "Phường 10",
        "AddressNo": "338 - 340",
        "Street": "Cách Mạng Tháng Tám",
        "SupportDisability": "",
        "Status": "Đang khai thác",
        "Lng": 106.674741,
        "Lat": 10.78163,
        "Search": "CBD 338-340 CMTT",
        "Routes": "30, 65"
    },
    {
        "StopId": 2709,
        "Code": "Q3 012",
        "Name": "Rạp hát Thanh Vân",
        "StopType": "Trụ dừng",
        "Zone": "Quận 3",
        "Ward": "Phường 10",
        "AddressNo": "366",
        "Street": "Cách Mạng Tháng Tám",
        "SupportDisability": "",
        "Status": "Đang khai thác",
        "Lng": 106.670755,
        "Lat": 10.783738,
        "Search": "RhTV 366 CMTT",
        "Routes": "30, 65"
    },
    {
        "StopId": 2712,
        "Code": "Q3 013",
        "Name": "Chợ Hòa Hưng",
        "StopType": "Trụ dừng",
        "Zone": "Quận 3",
        "Ward": null,
        "AddressNo": "442",
        "Street": "Cách Mạng Tháng Tám",
        "SupportDisability": "",
        "Status": "Đang khai thác",
        "Lng": 106.669945,
        "Lat": 10.784146,
        "Search": "CHH 442 CMTT",
        "Routes": "30, 65"
    },
    {
        "StopId": 1300,
        "Code": "Q3 014",
        "Name": "Công viên Lê Thị Riêng",
        "StopType": "Trụ dừng",
        "Zone": "Quận 3",
        "Ward": "Phường 11",
        "AddressNo": "542",
        "Street": "Cách Mạng Tháng Tám",
        "SupportDisability": "",
        "Status": "Đang khai thác",
        "Lng": 106.66693,
        "Lat": 10.785814,
        "Search": "CvLTR 542 CMTT",
        "Routes": "13, 30, 65"
    },
    {
        "StopId": 906,
        "Code": "QTB 054",
        "Name": "Bắc Hải",
        "StopType": "Trụ dừng",
        "Zone": "Quận Tân Bình",
        "Ward": null,
        "AddressNo": "690",
        "Street": "Cách Mạng Tháng Tám",
        "SupportDisability": "",
        "Status": "Đang khai thác",
        "Lng": 106.663727,
        "Lat": 10.787486,
        "Search": "BH 690 CMTT",
        "Routes": "103, 30, 65"
    },
    {
        "StopId": 907,
        "Code": "QTB 055",
        "Name": "Ngã ba Bành Văn Trân",
        "StopType": "Biển treo",
        "Zone": "Quận Tân Bình",
        "Ward": null,
        "AddressNo": "814",
        "Street": "Cách Mạng Tháng Tám",
        "SupportDisability": "",
        "Status": "Đang khai thác",
        "Lng": 106.661453,
        "Lat": 10.788692,
        "Search": "NbBVT 814 CMTT",
        "Routes": "103, 30, 65"
    },
    {
        "StopId": 910,
        "Code": "QTB 056",
        "Name": "Ông Tạ",
        "StopType": "Biển treo",
        "Zone": "Quận Tân Bình",
        "Ward": null,
        "AddressNo": "962",
        "Street": "Cách Mạng Tháng Tám",
        "SupportDisability": "",
        "Status": "Đang khai thác",
        "Lng": 106.659694,
        "Lat": 10.78963,
        "Search": "OT 962 CMTT",
        "Routes": "103, 30, 65"
    },
    {
        "StopId": 909,
        "Code": "QTB 057",
        "Name": "Cư xá Tự Do",
        "StopType": "Biển treo",
        "Zone": "Quận Tân Bình",
        "Ward": null,
        "AddressNo": "1130",
        "Street": "Cách Mạng Tháng Tám",
        "SupportDisability": "",
        "Status": "Đang khai thác",
        "Lng": 106.656218,
        "Lat": 10.791448,
        "Search": "CxTD 1130 CMTT",
        "Routes": "103, 30, 65"
    },
    {
        "StopId": 908,
        "Code": "QTB 058",
        "Name": "Bệnh viện Thống Nhất",
        "StopType": "Nhà chờ",
        "Zone": "Quận Tân Bình",
        "Ward": null,
        "AddressNo": "1236 (544)",
        "Street": "Cách Mạng Tháng Tám",
        "SupportDisability": "",
        "Status": "Đang khai thác",
        "Lng": 106.653991,
        "Lat": 10.792649,
        "Search": "BvTN 1236( CMTT",
        "Routes": "103, 13, 30, 65"
    },
    {
        "StopId": 510,
        "Code": "QTB 034",
        "Name": "Bệnh viện Quận Tân Bình",
        "StopType": "Nhà chờ",
        "Zone": "Quận Tân Bình",
        "Ward": null,
        "AddressNo": "605",
        "Street": "Hoàng Văn Thụ",
        "SupportDisability": "",
        "Status": "Đang khai thác",
        "Lng": 106.655198,
        "Lat": 10.79472,
        "Search": "BvQTB 605 HVT",
        "Routes": "08, 103, 13, 145, 148, 30, 50, 59, 63-1, 64, 65, 70-3, 94"
    },
    {
        "StopId": 603,
        "Code": "QTB 065",
        "Name": "Trường Phạm Ngũ Lão",
        "StopType": "Trụ dừng",
        "Zone": "Quận Tân Bình",
        "Ward": null,
        "AddressNo": "149 (E62)",
        "Street": "Xuân Hồng",
        "SupportDisability": "",
        "Status": "Đang khai thác",
        "Lng": 106.654066,
        "Lat": 10.796032,
        "Search": "TPNL 149( XH",
        "Routes": "08, 103, 145, 148, 30, 50, 59, 64, 65, 70-3"
    },
    {
        "StopId": 606,
        "Code": "QTB 066",
        "Name": "Cây xăng Đôi",
        "StopType": "Trụ dừng",
        "Zone": "Quận Tân Bình",
        "Ward": null,
        "AddressNo": "23",
        "Street": "Xuân Hồng",
        "SupportDisability": "",
        "Status": "Đang khai thác",
        "Lng": 106.652184,
        "Lat": 10.794256,
        "Search": "CxD 23 XH",
        "Routes": "08, 103, 145, 148, 30, 50, 59, 64, 65, 70-3"
    },
    {
        "StopId": 1719,
        "Code": "QTB 067",
        "Name": "Ngã tư Bảy Hiền",
        "StopType": "Biển treo",
        "Zone": "Quận Tân Bình",
        "Ward": null,
        "AddressNo": "106",
        "Street": "Trường Chinh",
        "SupportDisability": "",
        "Status": "Đang khai thác",
        "Lng": 106.651191,
        "Lat": 10.794182,
        "Search": "NtBH 106 TC",
        "Routes": "30, 64, 65"
    },
    {
        "StopId": 1720,
        "Code": "QTB 068",
        "Name": "Nhà Thở Đắc Lộ",
        "StopType": "Trụ dừng",
        "Zone": "Quận Tân Bình",
        "Ward": null,
        "AddressNo": "150",
        "Street": "Trường Chinh",
        "SupportDisability": "",
        "Status": "Đang khai thác",
        "Lng": 106.649576,
        "Lat": 10.795068,
        "Search": "NTDL 150 TC",
        "Routes": "30, 64, 65"
    },
    {
        "StopId": 1301,
        "Code": "QTB 069",
        "Name": "Ngã ba Hoàng Hoa Thám",
        "StopType": "Nhà chờ",
        "Zone": "Quận Tân Bình",
        "Ward": null,
        "AddressNo": "162T",
        "Street": "Trường Chinh",
        "SupportDisability": "",
        "Status": "Đang khai thác",
        "Lng": 106.647747,
        "Lat": 10.796053,
        "Search": "NbHHT 162T TC",
        "Routes": "13, 30, 64, 65, 94"
    },
    {
        "StopId": 2713,
        "Code": "QTB 070",
        "Name": "Ngã ba Bình Giã",
        "StopType": "Trụ dừng",
        "Zone": "Quận Tân Bình",
        "Ward": null,
        "AddressNo": "298",
        "Street": "Trường Chinh",
        "SupportDisability": "",
        "Status": "Đang khai thác",
        "Lng": 106.644453,
        "Lat": 10.797792,
        "Search": "NbBG 298 TC",
        "Routes": "30, 65"
    },
    {
        "StopId": 2714,
        "Code": "QTB 140",
        "Name": "Chùa Thiền Quang",
        "StopType": "Ô sơn",
        "Zone": "Quận Tân Bình",
        "Ward": null,
        "AddressNo": "22",
        "Street": "Trương Công Định",
        "SupportDisability": "",
        "Status": "Đang khai thác",
        "Lng": 106.641663,
        "Lat": 10.798234,
        "Search": "CTQ 22 TCD",
        "Routes": "30"
    },
    {
        "StopId": 4333,
        "Code": "QTB 141",
        "Name": "Bàu Cát 2",
        "StopType": "Trụ dừng",
        "Zone": "Quận Tân Bình",
        "Ward": null,
        "AddressNo": "160",
        "Street": "Trương Công Định",
        "SupportDisability": "",
        "Status": "Chưa khai thác",
        "Lng": 106.640488,
        "Lat": 10.794641,
        "Search": "BC2 160 TCD",
        "Routes": "30"
    },
    {
        "StopId": 2423,
        "Code": "QTB 050",
        "Name": "Công ty Giấy Mai Lan",
        "StopType": "Trụ dừng",
        "Zone": "Quận Tân Bình",
        "Ward": null,
        "AddressNo": "129",
        "Street": "Âu Cơ",
        "SupportDisability": "",
        "Status": "Đang khai thác",
        "Lng": 106.638982,
        "Lat": 10.793972,
        "Search": "CtGML 129 AC",
        "Routes": "27, 30"
    },
    {
        "StopId": 4312,
        "Code": "QTP 186",
        "Name": "Âu Cơ",
        "StopType": "Trụ dừng",
        "Zone": "Quận Tân Phú",
        "Ward": "Phường Tân Thành",
        "AddressNo": "1033",
        "Street": "Lũy Bán Bích",
        "SupportDisability": "",
        "Status": "Đang khai thác",
        "Lng": 106.637898,
        "Lat": 10.794367,
        "Search": "AC 1033 LBB",
        "Routes": "30, 62"
    },
    {
        "StopId": 4294,
        "Code": "QTP 125",
        "Name": "10, Độc Lập",
        "StopType": "Trụ dừng",
        "Zone": "Quận Tân Phú",
        "Ward": "Phường Tân Thành",
        "AddressNo": "10",
        "Street": "Độc Lập",
        "SupportDisability": "",
        "Status": "Đang khai thác",
        "Lng": 106.637013,
        "Lat": 10.791661,
        "Search": "10,DL 10 DL",
        "Routes": "30"
    },
    {
        "StopId": 2716,
        "Code": "QTP 126",
        "Name": "Trạm UBND Phường Tân Thành",
        "StopType": "Trụ dừng",
        "Zone": "Quận Tân Phú",
        "Ward": "Phường Tân Thành",
        "AddressNo": "146 (122)",
        "Street": "Độc Lập",
        "SupportDisability": "",
        "Status": "Đang khai thác",
        "Lng": 106.633423,
        "Lat": 10.79226,
        "Search": "TUPTT 146( DL",
        "Routes": "30"
    },
    {
        "StopId": 2718,
        "Code": "QTP 127",
        "Name": "Trường Lê Văn Tám",
        "StopType": "Trụ dừng",
        "Zone": "Quận Tân Phú",
        "Ward": null,
        "AddressNo": "216",
        "Street": "Độc Lập",
        "SupportDisability": "",
        "Status": "Đang khai thác",
        "Lng": 106.63134,
        "Lat": 10.792543,
        "Search": "TLVT 216 DL",
        "Routes": "30"
    },
    {
        "StopId": 2719,
        "Code": "QTP 110",
        "Name": "Nhà thờ Martino",
        "StopType": "Trụ dừng",
        "Zone": "Quận Tân Phú",
        "Ward": "Phường Tân Qúy",
        "AddressNo": "2",
        "Street": "Tân Hương",
        "SupportDisability": "",
        "Status": "Đang khai thác",
        "Lng": 106.62886,
        "Lat": 10.792652,
        "Search": "NtM 2 TH",
        "Routes": "30, 41"
    },
    {
        "StopId": 2717,
        "Code": "QTP 111",
        "Name": "Cafe Suối Reo",
        "StopType": "Trụ dừng",
        "Zone": "Quận Tân Phú",
        "Ward": "Phường Tân Qúy",
        "AddressNo": "90",
        "Street": "Tân Hương",
        "SupportDisability": "",
        "Status": "Đang khai thác",
        "Lng": 106.627785,
        "Lat": 10.789865,
        "Search": "CSR 90 TH",
        "Routes": "30, 41"
    },
    {
        "StopId": 2722,
        "Code": "QTP 112",
        "Name": "Nhà Thờ Tân Hương",
        "StopType": "Trụ dừng",
        "Zone": "Quận Tân Phú",
        "Ward": "Phường Tân Qúy",
        "AddressNo": "190",
        "Street": "Tân Hương",
        "SupportDisability": "",
        "Status": "Đang khai thác",
        "Lng": 106.623999,
        "Lat": 10.789867,
        "Search": "NTTH 190 TH",
        "Routes": "30, 41"
    },
    {
        "StopId": 2584,
        "Code": "QTP 113",
        "Name": "Trạm Chợ Tân Hương",
        "StopType": "Trụ dừng",
        "Zone": "Quận Tân Phú",
        "Ward": "Phường Tân Qúy",
        "AddressNo": "248",
        "Street": "Tân Hương",
        "SupportDisability": "",
        "Status": "Đang khai thác",
        "Lng": 106.621381,
        "Lat": 10.790178,
        "Search": "TCTH 248 TH",
        "Routes": "30, 32, 69"
    },
    {
        "StopId": 2720,
        "Code": "QTP 114",
        "Name": "Lê Sát",
        "StopType": "Trụ dừng",
        "Zone": "Quận Tân Phú",
        "Ward": "Phường Tân Qúy",
        "AddressNo": "234",
        "Street": "Tân Hương",
        "SupportDisability": "",
        "Status": "Đang khai thác",
        "Lng": 106.618996,
        "Lat": 10.789883,
        "Search": "LS 234 TH",
        "Routes": "30"
    },
    {
        "StopId": 1614,
        "Code": "QTP 116",
        "Name": "Bình Long",
        "StopType": "Trụ dừng",
        "Zone": "Quận Tân Phú",
        "Ward": null,
        "AddressNo": "214",
        "Street": "Lê Thúc Hoạch",
        "SupportDisability": "",
        "Status": "Đang khai thác",
        "Lng": 106.61882,
        "Lat": 10.788112,
        "Search": "BL 214 LTH",
        "Routes": "30"
    },
    {
        "StopId": 1560,
        "Code": "BX54",
        "Name": "Cư xá Nhiêu Lộc",
        "StopType": "Bến xe",
        "Zone": "Quận Tân Phú",
        "Ward": null,
        "AddressNo": "Bến xe buýt Cư xá Nhiêu Lộc",
        "Street": "Lê Thúc Hoạch",
        "SupportDisability": "",
        "Status": "Đang khai thác",
        "Lng": 106.622057,
        "Lat": 10.787617,
        "Search": "CxNL BxbCxNL LTH",
        "Routes": "30"
    }
]