[
    {
        "StopId": 1560,
        "Code": "BX54",
        "Name": "Cư xá Nhiêu Lộc",
        "StopType": "Bến xe",
        "Zone": "Quận Tân Phú",
        "Ward": null,
        "AddressNo": "Bến xe buýt Cư xá Nhiêu Lộc",
        "Street": "Lê Thúc Hoạch",
        "SupportDisability": "",
        "Status": "Đang khai thác",
        "Lng": 106.622057,
        "Lat": 10.787617,
        "Search": "CxNL BxbCxNL LTH",
        "Routes": "30"
    },
    {
        "StopId": 7131,
        "Code": "QTP 248",
        "Name": "Trường Cao đẳng GTVT",
        "StopType": "Trụ dừng",
        "Zone": "Quận Tân Phú",
        "Ward": "Phường Phú Thọ Hoà",
        "AddressNo": "82",
        "Street": "Lê Thúc Hoạch",
        "SupportDisability": "",
        "Status": "Đang khai thác",
        "Lng": 106.621993,
        "Lat": 10.787885,
        "Search": "TCdG 82 LTH",
        "Routes": "30"
    },
    {
        "StopId": 1561,
        "Code": "QTP 115",
        "Name": "Bình Long",
        "StopType": "Trụ dừng",
        "Zone": "Quận Tân Phú",
        "Ward": null,
        "AddressNo": "239",
        "Street": "Lê Thúc Hoạch",
        "SupportDisability": "",
        "Status": "Đang khai thác",
        "Lng": 106.618896,
        "Lat": 10.788292,
        "Search": "BL 239 LTH",
        "Routes": "30"
    },
    {
        "StopId": 2549,
        "Code": "QTP 105",
        "Name": "Lê Sát",
        "StopType": "Trụ dừng",
        "Zone": "Quận Tân Phú",
        "Ward": "Phường Tân Qúy",
        "AddressNo": "377",
        "Street": "Tân Hương",
        "SupportDisability": "",
        "Status": "Đang khai thác",
        "Lng": 106.618339,
        "Lat": 10.789677,
        "Search": "LS 377 TH",
        "Routes": "30"
    },
    {
        "StopId": 2553,
        "Code": "QTP 106",
        "Name": "Trạm Chợ Tân Hương",
        "StopType": "Trụ dừng",
        "Zone": "Quận Tân Phú",
        "Ward": "Phường Tân Qúy",
        "AddressNo": "217-219",
        "Street": "Tân Hương",
        "SupportDisability": "",
        "Status": "Đang khai thác",
        "Lng": 106.621666,
        "Lat": 10.790046,
        "Search": "TCTH 217-219 TH",
        "Routes": "30, 32, 69"
    },
    {
        "StopId": 2551,
        "Code": "QTP 107",
        "Name": "Nhà Thờ Tân Hương",
        "StopType": "Trụ dừng",
        "Zone": "Quận Tân Phú",
        "Ward": "Phường Tân Qúy",
        "AddressNo": "141",
        "Street": "Tân Hương",
        "SupportDisability": "",
        "Status": "Đang khai thác",
        "Lng": 106.624565,
        "Lat": 10.789681,
        "Search": "NTTH 141 TH",
        "Routes": "30, 41"
    },
    {
        "StopId": 2556,
        "Code": "QTP 108",
        "Name": "Café Suối Reo",
        "StopType": "Trụ dừng",
        "Zone": "Quận Tân Phú",
        "Ward": "Phường Tân Qúy",
        "AddressNo": "43",
        "Street": "Tân Hương",
        "SupportDisability": "",
        "Status": "Đang khai thác",
        "Lng": 106.628273,
        "Lat": 10.790343,
        "Search": "CSR 43 TH",
        "Routes": "30, 41"
    },
    {
        "StopId": 2554,
        "Code": "QTP 109",
        "Name": "Nhà thờ Martino",
        "StopType": "Ô sơn",
        "Zone": "Quận Tân Phú",
        "Ward": "Phường Tân Qúy",
        "AddressNo": "15",
        "Street": "Tân Hương",
        "SupportDisability": "",
        "Status": "Đang khai thác",
        "Lng": 106.628891,
        "Lat": 10.792511,
        "Search": "NtM 15 TH",
        "Routes": "30, 41"
    },
    {
        "StopId": 2555,
        "Code": "QTP 128",
        "Name": "Trạm Trường Lê Văn Tám",
        "StopType": "Trụ dừng",
        "Zone": "Quận Tân Phú",
        "Ward": null,
        "AddressNo": "115",
        "Street": "Độc Lập",
        "SupportDisability": "",
        "Status": "Đang khai thác",
        "Lng": 106.631424,
        "Lat": 10.792492,
        "Search": "TTLVT 115 DL",
        "Routes": "30"
    },
    {
        "StopId": 2558,
        "Code": "QTP 129",
        "Name": "Trạm UBND Phường Tân Thành",
        "StopType": "Trụ dừng",
        "Zone": "Quận Tân Phú",
        "Ward": "Phường Tân Thành",
        "AddressNo": "67-69",
        "Street": "Độc Lập",
        "SupportDisability": "",
        "Status": "Đang khai thác",
        "Lng": 106.633339,
        "Lat": 10.792188,
        "Search": "TUPTT 67-69 DL",
        "Routes": "30"
    },
    {
        "StopId": 4295,
        "Code": "QTP 130",
        "Name": "Ngã 3 Thẩm Mỹ",
        "StopType": "Ô sơn",
        "Zone": "Quận Tân Phú",
        "Ward": "Phường Tân Thành",
        "AddressNo": "21",
        "Street": "Độc Lập",
        "SupportDisability": "",
        "Status": "Đang khai thác",
        "Lng": 106.63675,
        "Lat": 10.791664,
        "Search": "N3TM 21 DL",
        "Routes": "30"
    },
    {
        "StopId": 4323,
        "Code": "QTP 210",
        "Name": "Âu Cơ",
        "StopType": "Trụ dừng",
        "Zone": "Quận Tân Phú",
        "Ward": null,
        "AddressNo": "742 (kios 10)",
        "Street": "Lũy Bán Bích",
        "SupportDisability": "",
        "Status": "Đang khai thác",
        "Lng": 106.638118,
        "Lat": 10.794541,
        "Search": "AC 742(10) LBB",
        "Routes": "30, 62"
    },
    {
        "StopId": 2394,
        "Code": "QTP 003",
        "Name": "Trạm Lũy Bán Bích",
        "StopType": "Trụ dừng",
        "Zone": "Quận Tân Phú",
        "Ward": null,
        "AddressNo": "825",
        "Street": "Âu Cơ",
        "SupportDisability": "",
        "Status": "Đang khai thác",
        "Lng": 106.638618,
        "Lat": 10.794283,
        "Search": "TLBB 825 AC",
        "Routes": "27, 30"
    },
    {
        "StopId": 4336,
        "Code": "QTB 142",
        "Name": "Bàu Cát 2",
        "StopType": "Trụ dừng",
        "Zone": "Quận Tân Bình",
        "Ward": null,
        "AddressNo": "61",
        "Street": "Trương Công Định",
        "SupportDisability": "",
        "Status": "Chưa khai thác",
        "Lng": 106.640657,
        "Lat": 10.794844,
        "Search": "BC2 61 TCD",
        "Routes": "30"
    },
    {
        "StopId": 2560,
        "Code": "QTB 143",
        "Name": "Chùa Thiền Quang",
        "StopType": "Trụ dừng",
        "Zone": "Quận Tân Bình",
        "Ward": null,
        "AddressNo": "19",
        "Street": "Trương Công Định",
        "SupportDisability": "",
        "Status": "Đang khai thác",
        "Lng": 106.641678,
        "Lat": 10.797898,
        "Search": "CTQ 19 TCD",
        "Routes": "30"
    },
    {
        "StopId": 2559,
        "Code": "QTB 082",
        "Name": "Ngã ba Hồng Đào",
        "StopType": "Trụ dừng",
        "Zone": "Quận Tân Bình",
        "Ward": null,
        "AddressNo": "351",
        "Street": "Trường Chinh",
        "SupportDisability": "",
        "Status": "Đang khai thác",
        "Lng": 106.644266,
        "Lat": 10.797666,
        "Search": "NbHD 351 TC",
        "Routes": "30, 65"
    },
    {
        "StopId": 1392,
        "Code": "QTB 083",
        "Name": "Ngã ba Hoàng Hoa Thám",
        "StopType": "Trụ dừng",
        "Zone": "Quận Tân Bình",
        "Ward": null,
        "AddressNo": "233",
        "Street": "Trường Chinh",
        "SupportDisability": "",
        "Status": "Đang khai thác",
        "Lng": 106.646218,
        "Lat": 10.796606,
        "Search": "NbHHT 233 TC",
        "Routes": "13, 30, 64, 65"
    },
    {
        "StopId": 1826,
        "Code": "QTB 084",
        "Name": "Nhà thờ Đắc Lộ",
        "StopType": "Nhà chờ",
        "Zone": "Quận Tân Bình",
        "Ward": null,
        "AddressNo": "97 (đối diện 160B)",
        "Street": "Trường Chinh",
        "SupportDisability": "",
        "Status": "Đang khai thác",
        "Lng": 106.64926,
        "Lat": 10.794978,
        "Search": "NtDL 97(d160B) TC",
        "Routes": "30, 64, 65"
    },
    {
        "StopId": 1830,
        "Code": "QTB 085",
        "Name": "Ngã tư Bảy Hiền",
        "StopType": "Nhà chờ",
        "Zone": "Quận Tân Bình",
        "Ward": null,
        "AddressNo": "67",
        "Street": "Trường Chinh",
        "SupportDisability": "",
        "Status": "Đang khai thác",
        "Lng": 106.651368,
        "Lat": 10.793856,
        "Search": "NtBH 67 TC",
        "Routes": "30, 64, 65"
    },
    {
        "StopId": 996,
        "Code": "QTB 059",
        "Name": "Bệnh viện Thống Nhất",
        "StopType": "Nhà chờ",
        "Zone": "Quận Tân Bình",
        "Ward": null,
        "AddressNo": "1125 (đối diện 544)",
        "Street": "Cách Mạng Tháng Tám",
        "SupportDisability": "",
        "Status": "Đang khai thác",
        "Lng": 106.654131,
        "Lat": 10.792391,
        "Search": "BvTN 1125(d544) CMTT",
        "Routes": "103, 13, 30, 65"
    },
    {
        "StopId": 998,
        "Code": "QTB 060",
        "Name": "Y tế Phường 4",
        "StopType": "Biển treo",
        "Zone": "Quận Tân Bình",
        "Ward": null,
        "AddressNo": "1057",
        "Street": "Cách Mạng Tháng Tám",
        "SupportDisability": "",
        "Status": "Đang khai thác",
        "Lng": 106.655885,
        "Lat": 10.791463,
        "Search": "YtP4 1057 CMTT",
        "Routes": "103, 30, 65"
    },
    {
        "StopId": 1000,
        "Code": "QTB 061",
        "Name": "Hồ Bơi Cộng Hòa",
        "StopType": "Biển treo",
        "Zone": "Quận Tân Bình",
        "Ward": null,
        "AddressNo": "1003",
        "Street": "Cách Mạng Tháng Tám",
        "SupportDisability": "",
        "Status": "Đang khai thác",
        "Lng": 106.65846,
        "Lat": 10.790114,
        "Search": "HBCH 1003 CMTT",
        "Routes": "103, 30, 65"
    },
    {
        "StopId": 1002,
        "Code": "QTB 062",
        "Name": "Ông Tạ",
        "StopType": "Trụ dừng",
        "Zone": "Quận Tân Bình",
        "Ward": null,
        "AddressNo": "907",
        "Street": "Cách Mạng Tháng Tám",
        "SupportDisability": "",
        "Status": "Đang khai thác",
        "Lng": 106.660075,
        "Lat": 10.789261,
        "Search": "OT 907 CMTT",
        "Routes": "103, 30, 65"
    },
    {
        "StopId": 1001,
        "Code": "QTB 063",
        "Name": "Ngã ba Bành Văn Trân",
        "StopType": "Trụ dừng",
        "Zone": "Quận Tân Bình",
        "Ward": null,
        "AddressNo": "771",
        "Street": "Cách Mạng Tháng Tám",
        "SupportDisability": "",
        "Status": "Đang khai thác",
        "Lng": 106.662315,
        "Lat": 10.78808,
        "Search": "NbBVT 771 CMTT",
        "Routes": "103, 30, 65"
    },
    {
        "StopId": 1003,
        "Code": "Q10 083",
        "Name": "Công viên Lê Thị Riêng",
        "StopType": "Nhà chờ",
        "Zone": "Quận 10",
        "Ward": null,
        "AddressNo": "875",
        "Street": "Cách Mạng Tháng Tám",
        "SupportDisability": "",
        "Status": "Đang khai thác",
        "Lng": 106.665777,
        "Lat": 10.786236,
        "Search": "CvLTR 875 CMTT",
        "Routes": "103, 13, 30, 65"
    },
    {
        "StopId": 2562,
        "Code": "Q10 084",
        "Name": "Hội thánh tin lành Hòa Hưng",
        "StopType": "Trụ dừng",
        "Zone": "Quận 10",
        "Ward": null,
        "AddressNo": "601",
        "Street": "Cách Mạng Tháng Tám",
        "SupportDisability": "",
        "Status": "Đang khai thác",
        "Lng": 106.668684,
        "Lat": 10.784671,
        "Search": "HttlHH 601 CMTT",
        "Routes": "30, 65"
    },
    {
        "StopId": 2561,
        "Code": "Q10 085",
        "Name": "Ngã ba Tô Hiến Thành",
        "StopType": "Biển treo",
        "Zone": "Quận 10",
        "Ward": null,
        "AddressNo": "513",
        "Street": "Cách Mạng Tháng Tám",
        "SupportDisability": "",
        "Status": "Đang khai thác",
        "Lng": 106.672699,
        "Lat": 10.782535,
        "Search": "NbTHT 513 CMTT",
        "Routes": "30, 65"
    },
    {
        "StopId": 1399,
        "Code": "Q10 086",
        "Name": "Chùa Bửu Đà",
        "StopType": "Trụ dừng",
        "Zone": "Quận 10",
        "Ward": null,
        "AddressNo": "427",
        "Street": "Cách Mạng Tháng Tám",
        "SupportDisability": "",
        "Status": "Đang khai thác",
        "Lng": 106.675063,
        "Lat": 10.78124,
        "Search": "CBD 427 CMTT",
        "Routes": "13, 30, 65"
    },
    {
        "StopId": 2564,
        "Code": "Q10 087",
        "Name": " Ngã ba Hòa Hưng",
        "StopType": "Biển treo",
        "Zone": "Quận 10",
        "Ward": null,
        "AddressNo": "385",
        "Street": "Cách Mạng Tháng Tám",
        "SupportDisability": "",
        "Status": "Đang khai thác",
        "Lng": 106.676575,
        "Lat": 10.780435,
        "Search": "NbHH 385 CMTT",
        "Routes": "30, 65"
    },
    {
        "StopId": 1394,
        "Code": "Q10 088",
        "Name": "Công trường Dân Chủ",
        "StopType": "Nhà chờ",
        "Zone": "Quận 10",
        "Ward": null,
        "AddressNo": "Đối diện 132A",
        "Street": "Cách Mạng Tháng Tám",
        "SupportDisability": "",
        "Status": "Đang khai thác",
        "Lng": 106.680706,
        "Lat": 10.778205,
        "Search": "CtDC Dd132A CMTT",
        "Routes": "13, 30, 65"
    },
    {
        "StopId": 2563,
        "Code": "Q3 015",
        "Name": "Công an Quận 3",
        "StopType": "Nhà chờ",
        "Zone": "Quận 3",
        "Ward": null,
        "AddressNo": "243",
        "Street": "Cách Mạng Tháng Tám",
        "SupportDisability": "Có",
        "Status": "Đang khai thác",
        "Lng": 106.68246,
        "Lat": 10.777219,
        "Search": "CaQ3 243 CMTT",
        "Routes": "30, 65"
    },
    {
        "StopId": 731,
        "Code": "Q3 024",
        "Name": "Cách Mạng tháng 8",
        "StopType": "Nhà chờ",
        "Zone": "Quận 3",
        "Ward": null,
        "AddressNo": "303",
        "Street": "Điện Biên Phủ",
        "SupportDisability": "Có",
        "Status": "Đang khai thác",
        "Lng": 106.684145,
        "Lat": 10.777009,
        "Search": "CMt8 303 DBP",
        "Routes": "10, 150, 30, 91"
    },
    {
        "StopId": 1913,
        "Code": "Q3 025",
        "Name": "Bệnh viện Mắt TPHCM",
        "StopType": "Ô sơn",
        "Zone": "Quận 3",
        "Ward": "Phường 07",
        "AddressNo": "291",
        "Street": "Điện Biên Phủ",
        "SupportDisability": "",
        "Status": "Đang khai thác",
        "Lng": 106.685471,
        "Lat": 10.778255,
        "Search": "BvMT 291 DBP",
        "Routes": "150, 30, 91"
    },
    {
        "StopId": 1917,
        "Code": "Q3 026",
        "Name": "Sở Khoa học và Công nghệ",
        "StopType": "Nhà chờ",
        "Zone": "Quận 3",
        "Ward": null,
        "AddressNo": "273",
        "Street": "Điện Biên Phủ",
        "SupportDisability": "",
        "Status": "Đang khai thác",
        "Lng": 106.687621,
        "Lat": 10.780286,
        "Search": "SKhvCn 273 DBP",
        "Routes": "150, 30, 91"
    },
    {
        "StopId": 1914,
        "Code": "Q3 027",
        "Name": "Trường Marie Curie",
        "StopType": "Nhà chờ",
        "Zone": "Quận 3",
        "Ward": null,
        "AddressNo": "Đối diện số 206 (247)",
        "Street": "Điện Biên Phủ",
        "SupportDisability": "Có",
        "Status": "Đang khai thác",
        "Lng": 106.690369,
        "Lat": 10.782872,
        "Search": "TMC Dds206( DBP",
        "Routes": "30, 91"
    },
    {
        "StopId": 1920,
        "Code": "Q3 028",
        "Name": "Phạm Ngọc Thạch",
        "StopType": "Trụ dừng",
        "Zone": "Quận 3",
        "Ward": "Phường 06",
        "AddressNo": "209",
        "Street": "Điện Biên Phủ",
        "SupportDisability": "",
        "Status": "Đang khai thác",
        "Lng": 106.692375,
        "Lat": 10.784965,
        "Search": "PNT 209 DBP",
        "Routes": "150, 30, 72-1, 91, 93"
    },
    {
        "StopId": 2565,
        "Code": "Q3 080",
        "Name": "Điện Biên Phủ",
        "StopType": "Trụ dừng",
        "Zone": "Quận 3",
        "Ward": null,
        "AddressNo": "43",
        "Street": "Phạm Ngọc Thạch",
        "SupportDisability": "",
        "Status": "Đang khai thác",
        "Lng": 106.693372,
        "Lat": 10.784824,
        "Search": "DBP 43 PNT",
        "Routes": "30, 36"
    },
    {
        "StopId": 2566,
        "Code": "Q3 081",
        "Name": "Đại học Kinh tế",
        "StopType": "Nhà chờ",
        "Zone": "Quận 3",
        "Ward": null,
        "AddressNo": "17",
        "Street": "Phạm Ngọc Thạch",
        "SupportDisability": "",
        "Status": "Đang khai thác",
        "Lng": 106.695201,
        "Lat": 10.783211,
        "Search": "DhKt 17 PNT",
        "Routes": "30, 36"
    },
    {
        "StopId": 2567,
        "Code": "Q3 117",
        "Name": "Nhà Văn Hóa Thanh Niên",
        "StopType": "Trụ dừng",
        "Zone": "Quận 3",
        "Ward": null,
        "AddressNo": "3-5",
        "Street": "Phạm Ngọc Thạch",
        "SupportDisability": "",
        "Status": "Đang khai thác",
        "Lng": 106.696794,
        "Lat": 10.781741,
        "Search": "NVHTN 3-5 PNT",
        "Routes": "30, 36, 52"
    },
    {
        "StopId": 2692,
        "Code": "Q1 083",
        "Name": "Diamond Plaza",
        "StopType": "Trụ dừng",
        "Zone": "Quận 1",
        "Ward": null,
        "AddressNo": "47",
        "Street": "Lê Duẩn",
        "SupportDisability": "",
        "Status": "Đang khai thác",
        "Lng": 106.699058,
        "Lat": 10.780898,
        "Search": "DP 47 LD",
        "Routes": "18, 30"
    },
    {
        "StopId": 2029,
        "Code": "Q1 084",
        "Name": "Khách sạn Sofitel",
        "StopType": "Trụ dừng",
        "Zone": "Quận 1",
        "Ward": null,
        "AddressNo": "Sofitel Plaza",
        "Street": "Lê Duẩn",
        "SupportDisability": "",
        "Status": "Đang khai thác",
        "Lng": 106.702303,
        "Lat": 10.78417,
        "Search": "KsS SP LD",
        "Routes": "18, 19, 30"
    },
    {
        "StopId": 2573,
        "Code": "Q1 033",
        "Name": "Mầm non Hoa Lư",
        "StopType": "Trụ dừng",
        "Zone": "Quận 1",
        "Ward": null,
        "AddressNo": "2A",
        "Street": "Nguyễn Hữu Cảnh",
        "SupportDisability": "",
        "Status": "Đang khai thác",
        "Lng": 106.708628,
        "Lat": 10.785077,
        "Search": "MnHL 2A NHC",
        "Routes": "30, 44, 56, 88"
    },
    {
        "StopId": 2579,
        "Code": "QBTH 077",
        "Name": "Hồ Bơi Hải Quân",
        "StopType": "Trụ dừng",
        "Zone": "Quận Bình Thạnh",
        "Ward": null,
        "AddressNo": "18",
        "Street": "Nguyễn Hữu Cảnh",
        "SupportDisability": "",
        "Status": "Đang khai thác",
        "Lng": 106.710779,
        "Lat": 10.789113,
        "Search": "HBHQ 18 NHC",
        "Routes": "30, 44, 56, 88"
    },
    {
        "StopId": 2574,
        "Code": "QBTH 078",
        "Name": "Chung cư Manor",
        "StopType": "Nhà chờ",
        "Zone": "Quận Bình Thạnh",
        "Ward": null,
        "AddressNo": "176E",
        "Street": "Nguyễn Hữu Cảnh",
        "SupportDisability": "",
        "Status": "Đang khai thác",
        "Lng": 106.718445,
        "Lat": 10.793266,
        "Search": "CcM 176E NHC",
        "Routes": "30, 56"
    },
    {
        "StopId": 7702,
        "Code": "QBTH 079_1",
        "Name": "Tân Cảng ",
        "StopType": "Trạm tạm",
        "Zone": "Quận Bình Thạnh",
        "Ward": "Phường 22",
        "AddressNo": "Đối diện 131",
        "Street": "Nguyễn Hữu Cảnh",
        "SupportDisability": "",
        "Status": "Đã hủy",
        "Lng": 106.71882,
        "Lat": 10.79576,
        "Search": "TC Dd131 NHC",
        "Routes": "30"
    },
    {
        "StopId": 477,
        "Code": "Q2 071",
        "Name": "Cầu Đen",
        "StopType": "Nhà chờ",
        "Zone": "Quận 2",
        "Ward": null,
        "AddressNo": "794",
        "Street": "Xa Lộ Hà Nội",
        "SupportDisability": "",
        "Status": "Đang khai thác",
        "Lng": 106.7342,
        "Lat": 10.799978,
        "Search": "CD 794 XLHN",
        "Routes": "06, 10, 104, 150, 30, 52, 53, 55, 56, 60-4, 60-7, 72-1"
    },
    {
        "StopId": 478,
        "Code": "Q2 072",
        "Name": "Thảo Điền",
        "StopType": "Nhà chờ",
        "Zone": "Quận 2",
        "Ward": null,
        "AddressNo": "Đối diện ngã 3 Thảo Điền",
        "Street": "Xa Lộ Hà Nội",
        "SupportDisability": "",
        "Status": "Đang khai thác",
        "Lng": 106.738899,
        "Lat": 10.800838,
        "Search": "TD Ddn3TD XLHN",
        "Routes": "06, 104, 150, 30, 52, 55, 56, 60-3, 60-4, 60-7"
    },
    {
        "StopId": 480,
        "Code": "Q2 073",
        "Name": "Metro Quận 2",
        "StopType": "Nhà chờ",
        "Zone": "Quận 2",
        "Ward": null,
        "AddressNo": "170",
        "Street": "Xa Lộ Hà Nội",
        "SupportDisability": "",
        "Status": "Đang khai thác",
        "Lng": 106.742928,
        "Lat": 10.801584,
        "Search": "MQ2 170 XLHN",
        "Routes": "06, 104, 150, 30, 52, 55, 56, 60-3, 60-4, 60-7"
    },
    {
        "StopId": 479,
        "Code": "Q2 074",
        "Name": "Cát Lái",
        "StopType": "Nhà chờ",
        "Zone": "Quận 2",
        "Ward": null,
        "AddressNo": "Khu dân cư Estella",
        "Street": "Xa Lộ Hà Nội",
        "SupportDisability": "",
        "Status": "Đang khai thác",
        "Lng": 106.748089,
        "Lat": 10.802592,
        "Search": "CL KdcE XLHN",
        "Routes": "06, 104, 150, 30, 52, 55, 56, 60-3, 60-4, 60-7"
    },
    {
        "StopId": 482,
        "Code": "Q9 210",
        "Name": "Xi măng hà tiên - trạm thu phí",
        "StopType": "Nhà chờ",
        "Zone": "Quận 9",
        "Ward": null,
        "AddressNo": "249B",
        "Street": "Xa Lộ Hà Nội",
        "SupportDisability": "",
        "Status": "Đang khai thác",
        "Lng": 106.758394,
        "Lat": 10.819206,
        "Search": "Xmht-ttp 249B XLHN",
        "Routes": "06, 104, 150, 30, 52, 55, 56, 60-3, 60-4, 60-7, 99"
    },
    {
        "StopId": 481,
        "Code": "Q9 211",
        "Name": "Ngã 4 Tây Hòa (RMK)",
        "StopType": "Nhà chờ",
        "Zone": "Quận 9",
        "Ward": null,
        "AddressNo": "185A",
        "Street": "Xa Lộ Hà Nội",
        "SupportDisability": "",
        "Status": "Đang khai thác",
        "Lng": 106.760775,
        "Lat": 10.825972,
        "Search": "N4TH( 185A XLHN",
        "Routes": "06, 104, 150, 30, 52, 55, 56, 60-3, 60-4, 60-7, 99"
    },
    {
        "StopId": 485,
        "Code": "Q9 212",
        "Name": "Trạm xây dựng",
        "StopType": "Nhà chờ",
        "Zone": "Quận 9",
        "Ward": null,
        "AddressNo": "354A",
        "Street": "Xa Lộ Hà Nội",
        "SupportDisability": "",
        "Status": "Đang khai thác",
        "Lng": 106.76312,
        "Lat": 10.829955,
        "Search": "Txd 354A XLHN",
        "Routes": "06, 104, 150, 30, 52, 55, 56, 60-3, 60-4, 60-7"
    },
    {
        "StopId": 483,
        "Code": "Q9 213",
        "Name": "Khu QLGTDT số 2",
        "StopType": "Nhà chờ",
        "Zone": "Quận 9",
        "Ward": null,
        "AddressNo": "Khu QLGTĐT số 2",
        "Street": "Xa Lộ Hà Nội",
        "SupportDisability": "",
        "Status": "Đang khai thác",
        "Lng": 106.764778,
        "Lat": 10.833249,
        "Search": "KQs2 KQs2 XLHN",
        "Routes": "06, 10, 104, 150, 30, 52, 53, 55, 56, 60-4, 60-7"
    },
    {
        "StopId": 1025,
        "Code": "Q9 214",
        "Name": "Ngã 4 Bình Thái",
        "StopType": "Nhà chờ",
        "Zone": "Quận 9",
        "Ward": null,
        "AddressNo": "Kho 71",
        "Street": "Xa Lộ Hà Nội",
        "SupportDisability": "",
        "Status": "Đang khai thác",
        "Lng": 106.76666,
        "Lat": 10.836162,
        "Search": "N4BT K71 XLHN",
        "Routes": "104, 150, 30, 52, 55, 60-3, 60-4, 60-7"
    },
    {
        "StopId": 1030,
        "Code": "Q9 215",
        "Name": "UBND quận 9",
        "StopType": "Nhà chờ",
        "Zone": "Quận 9",
        "Ward": null,
        "AddressNo": "1B",
        "Street": "Xa Lộ Hà Nội",
        "SupportDisability": "",
        "Status": "Đang khai thác",
        "Lng": 106.769074,
        "Lat": 10.840466,
        "Search": "Uq9 1B XLHN",
        "Routes": "104, 150, 30, 52, 55, 60-3, 60-4, 60-7"
    },
    {
        "StopId": 1026,
        "Code": "Q9 216",
        "Name": "Bê tông Hải Âu",
        "StopType": "Trụ dừng",
        "Zone": "Quận 9",
        "Ward": "Phường Hiệp Phú",
        "AddressNo": "Bê tông Hải Âu",
        "Street": "Xa Lộ Hà Nội",
        "SupportDisability": "",
        "Status": "Đang khai thác",
        "Lng": 106.77079,
        "Lat": 10.843834,
        "Search": "BtHA BtHA XLHN",
        "Routes": "104, 150, 30, 52, 55, 60-3, 60-4, 60-7"
    },
    {
        "StopId": 1028,
        "Code": "Q9 217",
        "Name": "Ngã 4 Thủ Đức",
        "StopType": "Trụ dừng",
        "Zone": "Quận 9",
        "Ward": "Phường Hiệp Phú",
        "AddressNo": "716-720",
        "Street": "Xa Lộ Hà Nội",
        "SupportDisability": "",
        "Status": "Đang khai thác",
        "Lng": 106.772974,
        "Lat": 10.847142,
        "Search": "N4TD 716-720 XLHN",
        "Routes": "104, 150, 30, 52, 55, 60-3, 60-4, 60-7"
    },
    {
        "StopId": 494,
        "Code": "Q9 218",
        "Name": "Công an Quận 9",
        "StopType": "Nhà chờ",
        "Zone": "Quận 9",
        "Ward": null,
        "AddressNo": "Công an Quận 9",
        "Street": "Xa Lộ Hà Nội",
        "SupportDisability": "",
        "Status": "Đang khai thác",
        "Lng": 106.775066,
        "Lat": 10.849966,
        "Search": "CaQ9 CaQ9 XLHN",
        "Routes": "06, 08, 150, 30, 52, 60-3, 60-4, 60-7, 76"
    },
    {
        "StopId": 7159,
        "Code": "Q9 281",
        "Name": "Trạm Hutech - Khu Công nghệ cao",
        "StopType": "Nhà chờ",
        "Zone": "Quận 9",
        "Ward": "Phường Hiệp Phú",
        "AddressNo": "Trước Trung tâm Đào tạo NL CLC Hutech",
        "Street": "Song hành phải Xa Lộ Hà Nội",
        "SupportDisability": "Có",
        "Status": "Đang khai thác",
        "Lng": 106.785382,
        "Lat": 10.856398,
        "Search": "TH-KCnc TTtDtNCH ShpXLHN",
        "Routes": "06, 08, 10, 150, 30, 52, 60-4, 60-7, 76"
    },
    {
        "StopId": 495,
        "Code": "Q9 220",
        "Name": "Khu Công nghệ cao quận 9",
        "StopType": "Nhà chờ",
        "Zone": "Quận 9",
        "Ward": null,
        "AddressNo": "Khu công nghệ cao",
        "Street": "Xa Lộ Hà Nội",
        "SupportDisability": "",
        "Status": "Đang khai thác",
        "Lng": 106.788869,
        "Lat": 10.858511,
        "Search": "KCncq9 Kcnc XLHN",
        "Routes": "06, 08, 150, 30, 52, 60-3, 60-4, 60-7, 76"
    },
    {
        "StopId": 536,
        "Code": "Q9 221",
        "Name": "Cầu Vượt Trạm 2",
        "StopType": "Nhà chờ",
        "Zone": "Quận 9",
        "Ward": null,
        "AddressNo": "Tiệm vàng Kim Lợi",
        "Street": "Quốc lộ 1",
        "SupportDisability": "",
        "Status": "Đang khai thác",
        "Lng": 106.797538,
        "Lat": 10.863595,
        "Search": "CVT2 TvKL Ql1",
        "Routes": "08, 150, 19, 30, 33, 53, 60-1, 60-2, 60-3, 60-7, 76, 93"
    },
    {
        "StopId": 537,
        "Code": "Q9 223",
        "Name": "Suối Tiên",
        "StopType": "Trụ dừng",
        "Zone": "Quận 9",
        "Ward": "Phường Tân Phú",
        "AddressNo": "Suối Tiên",
        "Street": "Quốc lộ 1",
        "SupportDisability": "",
        "Status": "Đang khai thác",
        "Lng": 106.802081,
        "Lat": 10.866113,
        "Search": "ST ST Ql1",
        "Routes": "08, 150, 19, 30, 33, 53, 60-1, 60-2, 60-3, 76, 93, 99"
    },
    {
        "StopId": 7644,
        "Code": "QTD 251",
        "Name": "Vành đại ĐHQG TPHCM",
        "StopType": "Nhà chờ",
        "Zone": "Quận Thủ Đức",
        "Ward": "Phường Linh Trung",
        "AddressNo": "Cột điện 6 ĐHQG (Cafe Mưa Bụi)",
        "Street": "Đường 621",
        "SupportDisability": "Có",
        "Status": "Đang khai thác",
        "Lng": 106.806995,
        "Lat": 10.874405,
        "Search": "VdDT Cd6D(MB D621",
        "Routes": "08, 10, 19, 30, 33, 53, 99"
    },
    {
        "StopId": 7648,
        "Code": "QTD 253",
        "Name": "KTX Khu A ĐH Quốc Gia TPHCM",
        "StopType": "Nhà chờ",
        "Zone": "Quận Thủ Đức",
        "Ward": "Phường Linh Trung",
        "AddressNo": "Nút giao Quảng trường (hướng vào)",
        "Street": "Quảng Trường Sáng Tạo",
        "SupportDisability": "Có",
        "Status": "Đang khai thác",
        "Lng": 106.804968,
        "Lat": 10.875886,
        "Search": "KKADQGT NgQt(v QTST",
        "Routes": "08, 19, 30, 33, 99"
    },
    {
        "StopId": 7623,
        "Code": "QTD 254",
        "Name": "Đại học Quốc tế",
        "StopType": "Nhà chờ",
        "Zone": "Quận Thủ Đức",
        "Ward": "Phường Linh Trung",
        "AddressNo": "Đại học Quốc tế",
        "Street": "Quảng Trường Sáng Tạo",
        "SupportDisability": "Có",
        "Status": "Đang khai thác",
        "Lng": 106.802537,
        "Lat": 10.876655,
        "Search": "DhQt DhQt QTST",
        "Routes": "08, 19, 30"
    },
    {
        "StopId": 4412,
        "Code": "BX 1234546789",
        "Name": "Đường nội bộ Đại học Quốc gia",
        "StopType": "Ô sơn",
        "Zone": "Quận Thủ Đức",
        "Ward": null,
        "AddressNo": "Đại học Quốc Tế - Đại học Quốc gia",
        "Street": "Đường nội bộ Đại học Quốc gia",
        "SupportDisability": "",
        "Status": "Đang khai thác",
        "Lng": 106.801507,
        "Lat": 10.874168,
        "Search": "DnbDhQg DhQT-DhQg DnbDhQg",
        "Routes": "30"
    }
]