[{"StopId": 3157, "Code": "BX33", "Name": "ĐH BÁCH KHOA TP HCM", "StopType": "Bến xe", "Zone": "Quận 10", "Ward": null, "AddressNo": "ĐẦU BẾN ĐH BÁCH KHOA TP HCM", "Street": "Lý Thường Kiệt", "SupportDisability": "", "Status": "Đang khai thác", "Lng": 106.661346, "Lat": 10.774031, "Search": "DBKTH DBDBKTH LTK", "Routes": "50"}, {"StopId": 1013, "Code": "Q10 061", "Name": "Đại học Bách Khoa (cổng sau)", "StopType": "Nhà chờ", "Zone": "Quận 10", "Ward": null, "AddressNo": "350 ", "Street": "Tô Hiến Thành", "SupportDisability": "", "Status": "Đang khai thác", "Lng": 106.661125, "Lat": 10.773322, "Search": "DhBK(s 350 THT", "Routes": "103, 38, 50, 59, 69"}, {"StopId": 1008, "Code": "Q10 060", "Name": "Bệnh viện Trưng Vương", "StopType": "Nhà chờ", "Zone": "Quận 10", "Ward": null, "AddressNo": "142", "Street": "Tô Hiến Thành", "SupportDisability": "", "Status": "Đang khai thác", "Lng": 106.659096, "Lat": 10.771244, "Search": "BvTV 142 THT", "Routes": "103, 38, 50, 59, 69"}, {"StopId": 506, "Code": "Q10 055", "Name": "Đại học Bách Khoa", "StopType": "Nhà chờ", "Zone": "Quận 10", "Ward": null, "AddressNo": "268", "Street": "Lý Thường Kiệt", "SupportDisability": "", "Status": "Đang khai thác", "Lng": 106.657698, "Lat": 10.772603, "Search": "DhBK 268 LTK", "Routes": "08, 50, 59, 63-1, 70-3, 94"}, {"StopId": 547, "Code": "Q10 056", "Name": "Bưu Điện Phú Thọ", "StopType": "Nhà chờ", "Zone": "Quận 10", "Ward": null, "AddressNo": "270Bis", "Street": "Lý Thường Kiệt", "SupportDisability": "", "Status": "Đang khai thác", "Lng": 106.656625, "Lat": 10.776487, "Search": "BDPT 270Bis LTK", "Routes": "08, 50, 59, 63-1"}, {"StopId": 507, "Code": "QTB 023", "Name": "Ngã ba Thành Thái", "StopType": "Nhà chờ", "Zone": "Quận Tân Bình", "Ward": null, "AddressNo": "270", "Street": "Lý Thường Kiệt", "SupportDisability": "", "Status": "Đang khai thác", "Lng": 106.655912, "Lat": 10.7788, "Search": "NbTT 270 LTK", "Routes": "08, 50, 59, 63-1, 70-3"}, {"StopId": 548, "Code": "QTB 024", "Name": "Siêu thị Nguyễn Kim - CMC Tân Bình", "StopType": "Trụ dừng", "Zone": "Quận Tân Bình", "Ward": null, "AddressNo": "320 (Quận đoàn Tân Bình)", "Street": "Lý Thường Kiệt", "SupportDisability": "", "Status": "Đang khai thác", "Lng": 106.65529, "Lat": 10.781072, "Search": "StNK-CTB 320(dTB LTK", "Routes": "08, 50, 59, 63-1, 70-3"}, {"StopId": 551, "Code": "QTB 025", "Name": "Cây xăng Đôi", "StopType": "Nhà chờ", "Zone": "Quận Tân Bình", "Ward": null, "AddressNo": "151A", "Street": "Lý Thường Kiệt", "SupportDisability": "", "Status": "Đang khai thác", "Lng": 106.654431, "Lat": 10.784002, "Search": "CxD 151A LTK", "Routes": "08, 50, 59, 63-1, 94"}, {"StopId": 508, "Code": "QTB 026", "Name": "Chợ Tân Bình", "StopType": "Trụ dừng", "Zone": "Quận Tân Bình", "Ward": null, "AddressNo": "470", "Street": "Lý Thường Kiệt", "SupportDisability": "", "Status": "Đang khai thác", "Lng": 106.653786, "Lat": 10.786222, "Search": "CTB 470 LTK", "Routes": "08, 50, 59, 63-1, 70-3"}, {"StopId": 509, "Code": "QTB 027", "Name": "Bệnh viện chỉnh hình và Phục hồi chức năng", "StopType": "Nhà chờ", "Zone": "Quận Tân Bình", "Ward": null, "AddressNo": "1A (Trung tâm phục hồi người tàn tật)", "Street": "Lý Thường Kiệt", "SupportDisability": "", "Status": "Đang khai thác", "Lng": 106.653076, "Lat": 10.788689, "Search": "BvchvPhcn 1A(tphntt LTK", "Routes": "08, 50, 59, 63-1, 70-3"}, {"StopId": 553, "Code": "QTB 028", "Name": "Bệnh viện Thống Nhất", "StopType": "Nhà chờ", "Zone": "Quận Tân Bình", "Ward": null, "AddressNo": "Bệnh viện Thống Nhất", "Street": "Lý Thường Kiệt", "SupportDisability": "", "Status": "Đang khai thác", "Lng": 106.653074, "Lat": 10.792101, "Search": "BvTN BvTN LTK", "Routes": "08, 145, 148, 50, 59, 63-1"}, {"StopId": 510, "Code": "QTB 034", "Name": "Bệnh viện Quận Tân Bình", "StopType": "Nhà chờ", "Zone": "Quận Tân Bình", "Ward": null, "AddressNo": "605", "Street": "Hoàng Văn Thụ", "SupportDisability": "", "Status": "Đang khai thác", "Lng": 106.655198, "Lat": 10.79472, "Search": "BvQTB 605 HVT", "Routes": "08, 103, 13, 145, 148, 30, 50, 59, 63-1, 64, 65, 70-3, 94"}, {"StopId": 555, "Code": "QTB 035", "Name": "Nhà hàng Đông Phương", "StopType": "Nhà chờ", "Zone": "Quận Tân Bình", "Ward": null, "AddressNo": "429", "Street": "Hoàng Văn Thụ", "SupportDisability": "", "Status": "Đang khai thác", "Lng": 106.659216, "Lat": 10.798556, "Search": "NhDP 429 HVT", "Routes": "08, 103, 145, 148, 50, 59, 63-1, 64, 70-3"}, {"StopId": 187, "Code": "QTB 036", "Name": "Công viên Hoàng Văn Thụ", "StopType": "Nhà chờ", "Zone": "Quận Tân Bình", "Ward": null, "AddressNo": "259", "Street": "Hoàng Văn Thụ", "SupportDisability": "", "Status": "Đang khai thác", "Lng": 106.663578, "Lat": 10.800469, "Search": "CvHVT 259 HVT", "Routes": "04, 08, 103, 104, 148, 50, 59, 60-7, 63-1, 64"}, {"StopId": 455, "Code": "QTB 101", "Name": "Rạp Tân Sơn Nhất", "StopType": "Nhà chờ", "Zone": "Quận Tân Bình", "Ward": null, "AddressNo": "2B (Hông sân vận động Quân Khu 7)", "Street": "Phổ Quang", "SupportDisability": "", "Status": "Đang khai thác", "Lng": 106.665924, "Lat": 10.80244, "Search": "RTSN 2B(svdQK7) PQ", "Routes": "07, 148, 50, 59"}, {"StopId": 457, "Code": "QTB 102", "Name": "Bãi xe buýt Phổ Quang", "StopType": "Trụ dừng", "Zone": "Quận Tân Bình", "Ward": null, "AddressNo": "66 (Công ty Xe khách Sài Gòn)", "Street": "Phổ Quang", "SupportDisability": "", "Status": "Đang khai thác", "Lng": 106.6667, "Lat": 10.805417, "Search": "BxbPQ 66(tXkSG PQ", "Routes": "07, 148, 50, 59"}, {"StopId": 454, "Code": "QTB 103", "Name": "Cây xăng Quân đội", "StopType": "Trụ dừng", "Zone": "Quận Tân Bình", "Ward": null, "AddressNo": "96-100", "Street": "Phổ Quang", "SupportDisability": "", "Status": "Đang khai thác", "Lng": 106.668495, "Lat": 10.807221, "Search": "CxQd 96-100 PQ", "Routes": "07, 148, 50, 59"}, {"StopId": 456, "Code": "QPN 033", "Name": "Trường Đại học Kỹ thuật Công nghệ", "StopType": "Trụ dừng", "Zone": "Quận Phú Nhuận", "Ward": null, "AddressNo": "140", "Street": "Phổ Quang", "SupportDisability": "", "Status": "Đang khai thác", "Lng": 106.672236, "Lat": 10.808204, "Search": "TDhKtCn 140 PQ", "Routes": "07, 148, 50, 59"}, {"StopId": 459, "Code": "QPN 036", "Name": "Cuối công viên Gia Định", "StopType": "Nhà chờ", "Zone": "Quận Phú Nhuận", "Ward": null, "AddressNo": "7", "Street": "Hoàng Minh Giám", "SupportDisability": "", "Status": "Đang khai thác", "Lng": 106.674929, "Lat": 10.809727, "Search": "CcvGD 7 HMG", "Routes": "07, 148, 50, 59"}, {"StopId": 458, "Code": "QPN 037", "Name": "Ngã ba Đặng Văn Sâm", "StopType": "Nhà chờ", "Zone": "Quận Phú Nhuận", "Ward": null, "AddressNo": "Ngã ba Đặng Văn Sâm", "Street": "Hoàng Minh Giám", "SupportDisability": "", "Status": "Đang khai thác", "Lng": 106.676399, "Lat": 10.811382, "Search": "NbDVS NbDVS HMG", "Routes": "07, 148, 50, 59"}, {"StopId": 461, "Code": "QPN 038", "Name": "Đầu công viên Gia Định", "StopType": "Nhà chờ", "Zone": "Quận Phú Nhuận", "Ward": null, "AddressNo": "Đối diện Rạp xiếc", "Street": "Hoàng Minh Giám", "SupportDisability": "", "Status": "Đang khai thác", "Lng": 106.677949, "Lat": 10.813231, "Search": "DcvGD DdRx HMG", "Routes": "07, 148, 50, 59"}, {"StopId": 6847, "Code": "QGV 190", "Name": "Lê Lai", "StopType": "Nhà chờ", "Zone": "Quận Gò Vấp", "Ward": "Phường 01", "AddressNo": "150 (115A)", "Street": "Phạm Văn Đồng", "SupportDisability": "Có", "Status": "Đang khai thác", "Lng": 106.685486, "Lat": 10.817394, "Search": "LL 150( PVD", "Routes": "50"}, {"StopId": 6848, "Code": "QGV 191", "Name": "Phạm Văn Đồng", "StopType": "Nhà chờ", "Zone": "Quận Gò Vấp", "Ward": "Phường 01", "AddressNo": "262", "Street": "Phạm Văn Đồng", "SupportDisability": "Có", "Status": "Đang khai thác", "Lng": 106.688093, "Lat": 10.818637, "Search": "PVD 262 PVD", "Routes": "50"}, {"StopId": 6849, "Code": "QGV 192", "Name": "Vòng xoay Lê Quang Định", "StopType": "Nhà chờ", "Zone": "Quận Gò Vấp", "Ward": "Phường 04", "AddressNo": "314", "Street": "Phạm Văn Đồng", "SupportDisability": "Có", "Status": "Đang khai thác", "Lng": 106.690797, "Lat": 10.819544, "Search": "VxLQD 314 PVD", "Routes": "50"}, {"StopId": 7148, "Code": "QBTH 152", "Name": "Nút giao Phạm Văn Đồng - Phan Văn Trị", "StopType": "Nhà chờ", "Zone": "Quận Bình Thạnh", "Ward": null, "AddressNo": "380", "Street": "Phạm Văn Đồng", "SupportDisability": "Có", "Status": "Đang khai thác", "Lng": 106.695094, "Lat": 10.820666, "Search": "NgPVD-PVT 380 PVD", "Routes": "50"}, {"StopId": 7149, "Code": "QBTH 153", "Name": "Cầu Rạch Lăng", "StopType": "Nhà chờ", "Zone": "Quận Bình Thạnh", "Ward": null, "AddressNo": "332-334 (CS C63)", "Street": "Phạm Văn Đồng", "SupportDisability": "Có", "Status": "Đang khai thác", "Lng": 106.697545, "Lat": 10.82133, "Search": "CRL 332-334(C PVD", "Routes": "50"}, {"StopId": 7150, "Code": "QBTH 154", "Name": "Chung cư Cửu Long", "StopType": "Nhà chờ", "Zone": "Quận Bình Thạnh", "Ward": null, "AddressNo": "Chung cư Cửu Long", "Street": "Phạm Văn Đồng", "SupportDisability": "Có", "Status": "Đang khai thác", "Lng": 106.700648, "Lat": 10.822138, "Search": "CcCL CcCL PVD", "Routes": "50"}, {"StopId": 7151, "Code": "QBTH 155", "Name": "Cầu Bình Lợi", "StopType": "Nhà chờ", "Zone": "Quận Bình Thạnh", "Ward": null, "AddressNo": "Chung cư 548", "Street": "Phạm Văn Đồng", "SupportDisability": "Có", "Status": "Đang khai thác", "Lng": 106.704004, "Lat": 10.823021, "Search": "CBL Cc548 PVD", "Routes": "50"}, {"StopId": 523, "Code": "QTD 118", "Name": "Ngã tư Bình Triệu", "StopType": "Trụ dừng", "Zone": "Quận Thủ Đức", "Ward": "Phường Hiệp Bình Chánh", "AddressNo": "54", "Street": "Phạm Văn Đồng", "SupportDisability": "", "Status": "Đang khai thác", "Lng": 106.715655, "Lat": 10.82603, "Search": "NtBT 54 PVD", "Routes": "08, 50, 93"}, {"StopId": 524, "Code": "QTD 119", "Name": "Đường số 20", "StopType": "Nhà chờ", "Zone": "Quận Thủ Đức", "Ward": "Phường Hiệp Bình Chánh", "AddressNo": "Đối diện 216 - Gigamall ", "Street": "Phạm Văn Đồng", "SupportDisability": "Có", "Status": "Đang khai thác", "Lng": 106.721032, "Lat": 10.827878, "Search": "Ds20 Dd216-G PVD", "Routes": "08, 50, 93"}, {"StopId": 525, "Code": "QTD 120", "Name": "Chùa Ưu Đàm", "StopType": "Nhà chờ", "Zone": "Quận Thủ Đức", "Ward": "Phường Hiệp Bình Chánh", "AddressNo": "Khu dân cư Opal Tower", "Street": "Phạm Văn Đồng", "SupportDisability": "Có", "Status": "Đang khai thác", "Lng": 106.72476, "Lat": 10.830679, "Search": "CUD KdcOT PVD", "Routes": "08, 50, 93"}, {"StopId": 526, "Code": "QTD 121", "Name": "Cá sấu Hoa cà", "StopType": "Nhà chờ", "Zone": "Quận Thủ Đức", "Ward": "Phường Hiệp Bình Chánh", "AddressNo": "Đối diện Cá sấu Hoa Cà", "Street": "Phạm Văn Đồng", "SupportDisability": "Có", "Status": "Đang khai thác", "Lng": 106.728331, "Lat": 10.833606, "Search": "CsHc DdCsHC PVD", "Routes": "08, 50, 89, 93"}, {"StopId": 527, "Code": "QTD 122", "Name": "THCS Ngô Chí Quốc", "StopType": "Nhà chờ", "Zone": "Quận Thủ Đức", "Ward": "Phường Hiệp Bình Chánh", "AddressNo": "412", "Street": "Phạm Văn Đồng", "SupportDisability": "Có", "Status": "Đang khai thác", "Lng": 106.730713, "Lat": 10.83555, "Search": "TNCQ 412 PVD", "Routes": "08, 50, 89, 93"}, {"StopId": 528, "Code": "QTD 123", "Name": "Chùa An Lạc", "StopType": "Nhà chờ", "Zone": "Quận Thủ Đức", "Ward": "Phường Hiệp Bình Chánh", "AddressNo": "Chùa Ưu Đàm", "Street": "Phạm Văn Đồng", "SupportDisability": "Có", "Status": "Đang khai thác", "Lng": 106.733288, "Lat": 10.837484, "Search": "CAL CUD PVD", "Routes": "08, 50, 93"}, {"StopId": 529, "Code": "QTD 124", "Name": "Cầu Gò Dưa", "StopType": "Nhà chờ", "Zone": "Quận Thủ Đức", "Ward": "Phường Linh Đông", "AddressNo": "Trụ chiếu sáng C185", "Street": "Phạm Văn Đồng", "SupportDisability": "Có", "Status": "Đang khai thác", "Lng": 106.740509, "Lat": 10.839776, "Search": "CGD TcsC PVD", "Routes": "08, 50, 93"}, {"StopId": 530, "Code": "QTD 125", "Name": "Đường 30", "StopType": "Nhà chờ", "Zone": "Quận Thủ Đức", "Ward": "Phường Linh Đông", "AddressNo": "1136", "Street": "Phạm Văn Đồng", "SupportDisability": "Có", "Status": "Đang khai thác", "Lng": 106.744822, "Lat": 10.841821, "Search": "D30 1136 PVD", "Routes": "08, 50, 93"}, {"StopId": 4463, "Code": "QTĐT0010", "Name": "Chùa Quan Âm", "StopType": "Nhà chờ", "Zone": "Quận Thủ Đức", "Ward": "Phường Linh Đông", "AddressNo": "Chùa Quan Âm", "Street": "Phạm Văn Đồng", "SupportDisability": "Có", "Status": "Đang khai thác", "Lng": 106.748008, "Lat": 10.847447, "Search": "CQA CQA PVD", "Routes": "08, 50, 93"}, {"StopId": 4470, "Code": "QTĐT0011", "Name": "Ngã tư Tô Ngọc Vân - Phạm Văn Đồng", "StopType": "Ô sơn", "Zone": "Quận Thủ Đức", "Ward": "Phường Linh Đông", "AddressNo": "1216", "Street": "Phạm Văn Đồng", "SupportDisability": "", "Status": "Đang khai thác", "Lng": 106.750422, "Lat": 10.851599, "Search": "NtTNV-PVD 1216 PVD", "Routes": "08, 50, 93"}, {"StopId": 4471, "Code": "QTĐT0012", "Name": "Đại học CSND", "StopType": "Nhà chờ", "Zone": "Quận Thủ Đức", "Ward": "Phường Linh Tây", "AddressNo": "1348 - 1350", "Street": "Phạm Văn Đồng", "SupportDisability": "Có", "Status": "Đang khai thác", "Lng": 106.752879, "Lat": 10.860192, "Search": "DhC 1348-1350 PVD", "Routes": "50"}, {"StopId": 4486, "Code": "QTĐT0013", "Name": "Đường số 9", "StopType": "Trụ dừng", "Zone": "Quận Thủ Đức", "Ward": "Phường Linh Tây", "AddressNo": "Cột chiếu sáng C270", "Street": "Phạm Văn Đồng", "SupportDisability": "", "Status": "Đang khai thác", "Lng": 106.755631, "Lat": 10.862894, "Search": "Ds9 CcsC PVD", "Routes": "50"}, {"StopId": 4553, "Code": "QTĐT0014", "Name": "Ngã tư Bình Đường", "StopType": "Nhà chờ", "Zone": "Quận Thủ Đức", "Ward": "Phường Linh Tây", "AddressNo": "Ngã tư Bình Đường", "Street": "Phạm Văn Đồng", "SupportDisability": "Có", "Status": "Đang khai thác", "Lng": 106.758898, "Lat": 10.864722, "Search": "NtBD NtBD PVD", "Routes": "50"}, {"StopId": 4554, "Code": "QTĐT0015", "Name": "Nút giao Kha Vạn Cân - Phạm Văn Đồng", "StopType": "Nhà chờ", "Zone": "Quận Thủ Đức", "Ward": "Phường Linh Đông", "AddressNo": "Cột chiếu sáng C287", "Street": "Phạm Văn Đồng", "SupportDisability": "Có", "Status": "Đang khai thác", "Lng": 106.761117, "Lat": 10.865914, "Search": "NgKVC-PVD CcsC PVD", "Routes": "50"}, {"StopId": 3383, "Code": "QTD 139", "Name": "Nhà hàng tiệc cưới Phố Đôi", "StopType": "Trụ dừng", "Zone": "Quận Thủ Đức", "Ward": null, "AddressNo": "15/3", "Street": "Kha Vạn Cân", "SupportDisability": "", "Status": "Tạm ngưng khai thác", "Lng": 106.763399, "Lat": 10.868789, "Search": "NhtcPD 15/3 KVC", "Routes": "50, 61-1, 93"}, {"StopId": 3381, "Code": "QTD 138", "Name": "Trạm cầu vượt Linh Xuân", "StopType": "Trụ dừng", "Zone": "Quận Thủ Đức", "Ward": "Phường Linh Trung", "AddressNo": "1326-1328 (1129-1131)", "Street": "Kha Vạn Cân", "SupportDisability": "", "Status": "Đang khai thác", "Lng": 106.763999, "Lat": 10.87135, "Search": "TcvLX 1326-1328( KVC", "Routes": "50, 61-1, 93"}, {"StopId": 2083, "Code": "QTD 169", "Name": "Vietcombank", "StopType": "Trụ dừng", "Zone": "Quận Thủ Đức", "Ward": "Phường Linh Trung", "AddressNo": "Ngân hàng Vietcombank", "Street": "Quốc lộ 1", "SupportDisability": "", "Status": "Đang khai thác", "Lng": 106.769643, "Lat": 10.871597, "Search": "V NhV Ql1", "Routes": "19, 33, 50, 53, 60-1, 93"}, {"StopId": 2084, "Code": "QTD 170", "Name": "Nghĩa trang TP", "StopType": "Nhà chờ", "Zone": "Quận Thủ Đức", "Ward": "Phường Linh Trung", "AddressNo": "Cổng nghĩa trang thành phố", "Street": "Quốc lộ 1", "SupportDisability": "", "Status": "Đang khai thác", "Lng": 106.773039, "Lat": 10.870507, "Search": "NtT Cnttp Ql1", "Routes": "19, 33, 50, 60-1, 93"}, {"StopId": 1040, "Code": "QTD 171", "Name": "ĐH Kinh tế Luật", "StopType": "Nhà chờ", "Zone": "Quận Thủ Đức", "Ward": "Phường Linh Trung", "AddressNo": "Đối diện 665-CoopXtra", "Street": "Quốc lộ 1", "SupportDisability": "", "Status": "Đang khai thác", "Lng": 106.776724, "Lat": 10.869306, "Search": "DKtL Dd665-CoopXtra Ql1", "Routes": "104, 19, 33, 50, 60-1, 93"}, {"StopId": 1041, "Code": "QTD 172", "Name": "Công ty điện tử Samsung", "StopType": "Nhà chờ", "Zone": "Quận Thủ Đức", "Ward": "Phường Linh Trung", "AddressNo": "Công ty điện tử Samsung", "Street": "Quốc lộ 1", "SupportDisability": "", "Status": "Đang khai thác", "Lng": 106.778656, "Lat": 10.868691, "Search": "CtdtS CtdtS Ql1", "Routes": "104, 19, 33, 50, 60-1, 93"}, {"StopId": 1042, "Code": "QTD 173", "Name": "ĐH Nông Lâm", "StopType": "Nhà chờ", "Zone": "Quận Thủ Đức", "Ward": "Phường Linh Trung", "AddressNo": "Cột điện SI 2", "Street": "Quốc lộ 1", "SupportDisability": "", "Status": "Đang khai thác", "Lng": 106.787277, "Lat": 10.867122, "Search": "DNL CdS2 Ql1", "Routes": "104, 19, 33, 50, 60-1, 60-2, 93"}, {"StopId": 396, "Code": "QTD 174", "Name": "ĐH Nông Lâm", "StopType": "Trụ dừng", "Zone": "Quận Thủ Đức", "Ward": "Phường Linh Trung", "AddressNo": "1026/2 (1030)", "Street": "Quốc lộ 1", "SupportDisability": "", "Status": "Đang khai thác", "Lng": 106.790283, "Lat": 10.866912, "Search": "DNL 1026/2( Ql1", "Routes": "06, 19, 33, 50, 60-1, 60-2, 93"}, {"StopId": 7620, "Code": "QTD 244", "Name": "Thư Viện Trung tâm ĐHQG TPHCM", "StopType": "Nhà chờ", "Zone": "Quận Thủ Đức", "Ward": "Phường Linh Trung", "AddressNo": "Thư viện trung tâm ĐHQG", "Street": "Võ Trường Toản ", "SupportDisability": "Có", "Status": "Đang khai thác", "Lng": 106.795086, "Lat": 10.867741, "Search": "TVTtDT TvttD VTT", "Routes": "50, 52"}, {"StopId": 7643, "Code": "QTD 247", "Name": "Thư Viện Trung tâm ĐHQG TPHCM", "StopType": "Nhà chờ", "Zone": "Quận Thủ Đức", "Ward": "Phường Linh Trung", "AddressNo": "Cổng sau Thư viện Trung tâm ĐHQG", "Street": "Võ Trường Toản", "SupportDisability": "Có", "Status": "Đang khai thác", "Lng": 106.796315, "Lat": 10.870422, "Search": "TVTtDT CsTvTtD VTT", "Routes": "50, 52"}, {"StopId": 7649, "Code": "QTD 270", "Name": "Hồ Câu cá", "StopType": "Trụ dừng", "Zone": "Quận Thủ Đức", "Ward": "Phường Linh Trung", "AddressNo": "Đối diện 6/21", "Street": "Alexsandre de Rhodes", "SupportDisability": "Có", "Status": "Đang khai thác", "Lng": 106.798117, "Lat": 10.871713, "Search": "HCc Dd6/21 AdR", "Routes": "50, 52"}, {"StopId": 7624, "Code": "QTD 255", "Name": "Đại học Quốc tế", "StopType": "Nhà chờ", "Zone": "Quận Thủ Đức", "Ward": "Phường Linh Trung", "AddressNo": "Đối diện Đại học Quốc tế", "Street": "Quảng Trường Sáng Tạo", "SupportDisability": "Có", "Status": "Đang khai thác", "Lng": 106.80257, "Lat": 10.876476, "Search": "DhQt DdDhQt QTST", "Routes": "08, 19, 30, 50, 52, 53"}, {"StopId": 7657, "Code": "QTD 274", "Name": "Đại học Quốc tế", "StopType": "Nhà chờ", "Zone": "Quận Thủ Đức", "Ward": "Phường Linh Trung", "AddressNo": "Nút giao Lê Quý Đôn - ThomasEdison (đ/d ĐH Quốc tế)", "Street": "Lê Quý Đôn", "SupportDisability": "Có", "Status": "Đang khai thác", "Lng": 106.802731, "Lat": 10.878182, "Search": "DhQt NgLQD-T(DQt LQD", "Routes": "33, 50, 53, 99"}, {"StopId": 6845, "Code": "BX 87", "Name": "Đầu bến Đại học Bách Khoa - Cơ sở 2", "StopType": "Bến xe", "Zone": "Quận Thủ Đức", "Ward": "Phường Bình Chiểu", "AddressNo": "Đại học Bách Khoa", "Street": "Đại học Bách Khoa", "SupportDisability": "Có", "Status": "Đang khai thác", "Lng": 106.806378, "Lat": 10.880932, "Search": "DbDhBK-Cs2 DhBK DhBK", "Routes": "50"}]